번호,소재지전체주소,도로명전체주소,사업장명,업태구분명,좌표정보x(epsg5174),좌표정보y(epsg5174),위도,경도,geometry,구군,동
1,대구광역시 북구 산격동 1817호,대구광역시 북구 검단로 97 (산격동),코스트코 홀세일,대형마트,346013.6515,268532.1899,35.9062798581929,128.618081224985,POINT (346013.6515 268532.1899),북구,산격동
2,대구광역시 북구 노원동2가 381호,대구광역시 북구 팔달로 183 (노원동2가),하나프러스,그 밖의 대규모점포,341722.53,266512.6492,35.8889211713811,128.570118118632,POINT (341722.53 266512.6492),북구,노원동
3,대구광역시 북구 산격동 1629호,대구광역시 북구 유통단지로 16 (산격동),대구기계공구상협동조합,시장,344912.3589,268253.8303,35.9041081752813,128.605714108427,POINT (344912.3589 268253.8303),북구,산격동
4,대구광역시 북구 산격2동 1665번지,대구광역시 북구 유통단지로 38 (산격동),대구종합유통단지 전기재료관,그 밖의 대규모점포,345062.7542,268408.9514,35.9053179173131,128.607554962178,POINT (345062.7542 268408.9514),북구,산격2동
5,대구광역시 북구 태전동 993호,대구광역시 북구 칠곡중앙대로 412 (태전동),네오시티프라자,시장,339707.016,271331.0883,35.9322707893304,128.548891354096,POINT (339707.016 271331.0883),북구,태전동
6,대구광역시 북구 산격동 1621번지,"대구광역시 북구 유통단지로 45 (산격동, 유통단지전자관)",대구종합유통단지 전자관,그 밖의 대규모점포,344997.5853,268604.3506,35.9074587217372,128.606816372715,POINT (344997.5853 268604.3506),북구,산격동
7,대구광역시 북구 칠성동1가 276-163,대구광역시 북구 칠성남로 229(칠성동1가),칠성시장,그 밖의 대규모점포,344933.8639,265180.7836,35.8762736992067,128.605371419791,POINT (344933.8639 265180.7836),북구,칠성동
8,대구광역시 북구 칠성동1가 89호,대구광역시 북구 칠성시장로 19 (칠성동1가),경명시장,그 밖의 대규모점포,344814.6024,265105.7538,35.8756529860582,128.604016388101,POINT (344814.6024 265105.7538),북구,칠성동
9,대구광역시 북구 대현동 390호,대구광역시 북구 대현로20길 30 (대현동),동대구시장,그 밖의 대규모점포,345243.8947,265723.1339,35.8811188701377,128.608925969519,POINT (345243.8947 265723.1339),북구,대현동
10,대구광역시 북구 산격동 1258호,대구광역시 북구 대동로1길 34 (산격동),산격종합시장,그 밖의 대규모점포,345348.0501,267644.2197,35.8984046148121,128.610517453648,POINT (345348.0501 267644.2197),북구,산격동
11,대구광역시 북구 복현동 462호,대구광역시 북구 경진로1길 78 (복현동),복현종합시장,,346206.5494,267011.7153,35.8925829302165,128.619880988366,POINT (346206.5494 267011.7153),북구,복현동
12,대구광역시 북구 읍내동 1343-6호,대구광역시 북구 칠곡중앙대로 416 (읍내동),동아아울렛 강북점,복합쇼핑몰,339731.4043,271557.9402,35.9343040760648,128.54921612765,POINT (339731.4043 271557.9402),북구,읍내동
13,대구광역시 북구 관음동 1369-1호,,홈플러스 칠곡IC점,그 밖의 대규모점포,338928.8296,271647.0942,35.9353392013894,128.540466117707,POINT (338928.8296 271647.0942),북구,관음동
14,대구광역시 북구 칠성동1가 276-108호,,삼성시장,그 밖의 대규모점포,,,,,POINT EMPTY,북구,칠성동
15,대구광역시 북구 노원동2가 375호,대구광역시 북구 팔달로37길 11 (노원동2가),팔달시장,그 밖의 대규모점포,341785.154,266528.3536,35.8890203772904,128.570835466411,POINT (341785.154 266528.3536),북구,노원동
16,대구광역시 북구 노원동3가 750,대구광역시 북구 팔달로33길 59 (노원동3가),팔달신시장,시장,341344.5747,266702.6097,35.8906782115986,128.565985310608,POINT (341344.5747 266702.6097),북구,노원동
17,대구광역시 북구 칠성동1가 302-98호,,대성시장,그 밖의 대규모점포,,,,,POINT EMPTY,북구,칠성동
18,대구광역시 북구 동천동 968호,대구광역시 북구 동암로12길 8 (동천동),(주)홈플러스 칠곡점,대형마트,340320.7227,272735.6757,35.9448282847914,128.555911273392,POINT (340320.7227 272735.6757),북구,동천동
19,대구광역시 북구 산격동 1667호,대구광역시 북구 유통단지로 60 (산격동),대구종합유통단지 섬유제품관,그 밖의 대규모점포,345250.7566,268519.3873,35.9063163050665,128.60965188866,POINT (345250.7566 268519.3873),북구,산격동
20,대구광역시 북구 칠성동2가 20번지 1호,대구광역시 북구 침산로 93 (칠성동2가),신세계이마트 칠성점,대형마트,343510.5732,266134.2599,35.88491508136831,128.5900896415705,POINT (343510.5732 266134.2599),북구,칠성동
21,대구광역시 북구 칠성동2가 20번지 1호,대구광역시 북구 침산로 93 (칠성동2가),(주)스펙트럼시티,그 밖의 대규모점포,343510.5732,266134.2599,35.88491508136831,128.5900896415705,POINT (343510.5732 266134.2599),북구,칠성동
22,대구광역시 북구 산격동 1676 대구전시컨벤션센터,"대구광역시 북구 엑스코로 10, 대구전시컨벤션센터 (산격동)",EXCO Mall,그 밖의 대규모점포,345549.1102,268620.8457,35.9071330414324,128.613019544138,POINT (345549.1102 268620.8457),북구,산격동
23,대구광역시 북구 동천동 894번지 1호,대구광역시 북구 동암로 90 (동천동),한신공영(주),그 밖의 대규모점포,340718.2536,272659.9751,35.94411062933499,128.56033003944103,POINT (340718.2536 272659.9751),북구,동천동
24,대구광역시 북구 구암동 652번지 1호,대구광역시 북구 구암로32길 6-10 (구암동),홈플러스(주)익스프레스 구암2점,그 밖의 대규모점포,340442.5923,271224.0376,35.931247566036,128.556774237145,POINT (340442.5923 271224.0376),북구,구암동
25,대구광역시 북구 칠성동2가 302번지 155호 롯데백화점,대구광역시 북구 태평로 161 (칠성동2가),롯데백화점 대구점,쇼핑센터,344052.5769,265131.6534,35.87580311485628,128.5959088354752,POINT (344052.5769 265131.6534),북구,칠성동
26,대구광역시 북구 산격동 1666호,대구광역시 북구 유통단지로 50 (산격동),대구종합유통단지 전기조명관사업협동조합,복합쇼핑몰,345130.3132,268448.7235,35.9057221164596,128.608278674311,POINT (345130.3132 268448.7235),북구,산격동
27,대구광역시 북구 칠성동2가 20번지 1호,대구광역시 북구 침산로 93 (칠성동2가),(주)이마트 칠성점,대형마트,343510.5732,266134.2599,35.88491508136831,128.5900896415705,POINT (343510.5732 266134.2599),북구,칠성동
28,대구광역시 북구 산격2동 1668번지 일반의류관,대구광역시 북구 유통단지로14길 22 (산격동),대구종합유통단지 일반의류관,그 밖의 대규모점포,345320.3323,268402.3727,35.9052898245815,128.610384064784,POINT (345320.3323 268402.3727),북구,산격2동
29,대구광역시 북구 산격동 1626번지,대구광역시 북구 유통단지로 25 (산격동),전자상가협동조합,그 밖의 대규모점포,344879.4215,268476.8749,35.9063849248093,128.605664856715,POINT (344879.4215 268476.8749),북구,산격동
30,대구광역시 북구 칠성동2가 20번지 1호,대구광역시 북구 침산로 93 (칠성동2가),스펙트럼시티,시장,343510.5732,266134.2599,35.88491508136831,128.5900896415705,POINT (343510.5732 266134.2599),북구,칠성동
31,대구광역시 북구 복현2동 539번지 123호,대구광역시 북구 검단로 8 (복현동),롯데쇼핑(주)롯데슈퍼 복현점,구분없음,345790.1184,267617.1169,35.897937457229595,128.6155963851909,POINT (345790.1184 267617.1169),북구,복현2동
198,대구광역시 동구 신암동 681번지 6호 큰고개상가아파트,"대구광역시 동구 신암북로 101 (신암동, 큰고개상가아파트)",큰고개종합시장,그 밖의 대규모점포,346783.8824,266596.5759,35.88859518373661,128.62641158973494,POINT (346783.8824 266596.5759),동구,신암동
210,대구광역시 동구 검사동 908번지 5호,대구광역시 동구 동촌로 127 (검사동),홈플러스 주식회사 동촌점,대형마트,349426.8054,266377.8548,35.88622531154859,128.655629714868,POINT (349426.8054 266377.8548),동구,검사동
211,대구광역시 동구 율하동 1117번지,대구광역시 동구 안심로 80 (율하동),롯데쇼핑프라자 율하점,쇼핑센터,352868.5366,264480.5655,35.8684545574304,128.693132705342,POINT (352868.5366 264480.5655),동구,율하동
212,대구광역시 달서구 본리동 76번지 2호,"대구광역시 달서구 장기로 167, 223동 118~122호 (본리동, 성당래미안이편한세상)",(주)지에스리테일 GS수퍼 본리점,대형마트,339230.8451,261410.5551,35.84297559627841,128.54188618224623,POINT (339230.8451 261410.5551),달서구,본리
213,대구광역시 달서구 상인동 1527번지 3호,대구광역시 달서구 상화북로 187 (상인동),(주)지에스리테일 GS수퍼 대구월곡점,대형마트,339656.9469,258136.2255,35.8137961150331,128.546260547993,POINT (339656.9469 258136.2255),달서구,상인동
215,대구광역시 서구 원대동3가 1434번지 4호,대구광역시 서구 달서로54길 6 (원대동3가),원대신시장,그 밖의 대규모점포,342125.3776,266183.7383,35.885562709409946,128.57476352922785,POINT (342125.3776 266183.7383),서구,원대동
216,대구광역시 서구 내당동 968호,,새길시장,그 밖의 대규모점포,,,,,POINT EMPTY,서구,내당동
217,대구광역시 서구 비산동 434호,,서부시장,그 밖의 대규모점포,,,,,POINT EMPTY,서구,비산동
218,대구광역시 서구 원대동3가 1223번지 13  호,,원대시장,그 밖의 대규모점포,,,35.8829742422619,128.577915221671,POINT EMPTY,서구,원대동
219,대구광역시 서구 비산동 1247번지 1  호,,만평시장,그 밖의 대규모점포,,,35.8882946190828,128.562766983189,POINT EMPTY,서구,비산동
220,대구광역시 서구 평리동 1085번지 1   호,,서구시장,그 밖의 대규모점포,,,35.8737678447954,128.555717350347,POINT EMPTY,서구,평리
221,대구광역시 서구 평리동 1205호,대구광역시 서구 국채보상로52길 33 (평리동),신평리시장,그 밖의 대규모점포,340886.1006,264225.4574,35.8679578656417,128.560712125673,POINT (340886.1006 264225.4574),서구,평리
222,대구광역시 서구 평리동 676번지 1  호,,대평리시장,그 밖의 대규모점포,,,35.8782001831128,128.557730007677,POINT EMPTY,서구,평리
223,대구광역시 서구 내당동 13번지 1호,대구광역시 서구 서대구로8길 64 (내당동),밤고개시장,그 밖의 대규모점포,341172.0924,263548.7866,35.86196193267464,128.5637437631362,POINT (341172.0924 263548.7866),서구,내당동
224,대구광역시 서구 평리동 1538번지 3   호,,중리시장,그 밖의 대규모점포,,,35.8704868482364,128.54782935533,POINT EMPTY,서구,평리
225,대구광역시 서구 평리동 1437번지 5  호,,중평시장,그 밖의 대규모점포,,,35.8654411083554,128.553889167869,POINT EMPTY,서구,평리
226,대구광역시 서구 내당동 308번지 1  호,,삼익상가,그 밖의 대규모점포,,,35.860164683935,128.55013090653,POINT EMPTY,서구,내당동
227,대구광역시 서구 평리동 606번지 8  호,,이현시장,그 밖의 대규모점포,,,35.876962338323,128.550734204118,POINT EMPTY,서구,평리
228,대구광역시 서구 내당동 463번지 34호,대구광역시 서구 달구벌대로 1703 (내당동),광장코아,대형마트,340080.7556,262885.7287,35.85614479721815,128.55154904622415,POINT (340080.7556 262885.7287),서구,내당동
229,대구광역시 서구 내당동 1290번지외1번지,대구광역시 서구 달구벌대로 1760 (내당동),두류1번가,대형마트,340869.709,263229.337,35.8587364382294,128.559738810218,POINT (340869.709 263229.337),서구,내당동
230,대구광역시 서구 내당동 65번지 8   호,대구광역시 서구 달구벌대로 1821 (내당동),홈플러스(주),그 밖의 대규모점포,341183.3001,263371.6709,35.8603408517595,128.563813620902,POINT (341183.3001 263371.6709),서구,내당동
231,대구광역시 서구 내당동 965호,대구광역시 서구 달서로 42 (내당동),서문시장2지구종합상가,시장,341860.4196,264004.4593,35.8661751006667,128.571440454931,POINT (341860.4196 264004.4593),서구,내당동
232,대구광역시 서구 내당동 965번지,대구광역시 서구 달서로 42 (내당동),서문시장2지구종합상가,시장,341860.4196,264004.4593,35.8661751006667,128.571440454931,POINT (341860.4196 264004.4593),서구,내당동
233,대구광역시 서구 비산7동 1610번지 3호,대구광역시 서구 팔달로 54 (비산동),트레이더스 홀세일 클럽 비산점,복합쇼핑몰,340409.4519,266639.7393,35.88991824456087,128.55584720322068,POINT (340409.4519 266639.7393),서구,비산7동
234,대구광역시 동구 신서동 1187번지,,코스트코 홀세일 대구점,대형마트,356223.2441,265495.6691,35.8770826402863,128.730716079039,POINT (356223.2441 265495.6691),동구,신서동
235,대구광역시 동구 봉무동 1545번지,대구광역시 동구 팔공로49길 16 (봉무동),롯데아울렛 이시아폴리스점,쇼핑센터,347690.4344,270271.2257,35.9215538120703,128.637351790719,POINT (347690.4344 270271.2257),동구,봉무동
236,대구광역시 동구 방촌동 907번지 7호,대구광역시 동구 동촌로45길 5 (방촌동),(주)이마트에브리데이 방촌동점,쇼핑센터,350282.0498,265973.968,35.8824560503782,128.66502143611007,POINT (350282.0498 265973.968),동구,방촌동
237,대구광역시 동구 신천동 294번지 5호,대구광역시 동구 동대구로 454 (신천동),(주)현대백화점 현대시티아울렛 대구점,쇼핑센터,346807.0869,264654.3575,35.87109459674926,128.62631103185004,POINT (346807.0869 264654.3575),동구,신천동
238,대구광역시 동구 신천동 329번지 3호,대구광역시 동구 동부로 149 (신천동),(주)신세계 동대구복합환승센터,백화점,347037.242,265407.4043,35.877844174779604,128.62899725491116,POINT (347037.242 265407.4043),동구,신천동
239,대구광역시 동구 신서동 520번지 1호,대구광역시 동구 안심로 389-2 (신서동),(주)이마트 반야월점,대형마트,355939.3623,264777.2436,35.87079171002793,128.7274113745463,POINT (355939.3623 264777.2436),동구,신서동
240,대구광역시 동구 신서동 521번지 36호 더블럭,"대구광역시 동구 안심로 389-5, 더블럭 (신서동)",더블럭(The Block),그 밖의 대규모점포,355855.9555,264865.6959,35.87160178380978,128.72650551960703,POINT (355855.9555 264865.6959),동구,신서동
241,대구광역시 동구 신서동 521번지 39호,대구광역시 동구 안심로 389-3 (신서동),제이에스인터내셔날,그 밖의 대규모점포,355857.3572,264781.4107,35.87084228791485,128.72650457211236,POINT (355857.3572 264781.4107),동구,신서동
242,대구광역시 달서구 대천동 555번지,대구광역시 달서구 진천로 92 (대천동),(주)이마트 월배점,대형마트,337647.1886,258512.3167,35.8170204917568,128.523708247192,POINT (337647.1886 258512.3167),달서구,대천동
243,대구광역시 달서구 용산1동 414번지 5호,대구광역시 달서구 성지로 27 (용산동),홈플러스(주) 익스프레스 용산2점,대형마트,337097.0374,262588.5922,35.8491509607989,128.524876241667,POINT (337097.0374 262588.5922),달서구,용산1동
244,대구광역시 달서구 상인1동 860번지 3호,대구광역시 달서구 송현로7길 19 (상인동),홈플러스(주) 익스프레스 상인점,대형마트,339717.0203,258942.8359,35.82067421692279,128.5468344725262,POINT (339717.0203 258942.8359),달서구,상인1동
245,대구광역시 달서구 용산동 934번지 1호,대구광역시 달서구 용산로 220 (용산동),홈플러스(주) 익스프레스 용산점,대형마트,338205.2153,262968.8261,35.8574118955191,128.530873450885,POINT (338205.2153 262968.8261),달서구,용산동
246,대구광역시 달서구 감삼동 206-75,대구광역시 달서구 당산로 83 (감삼동),홈플러스(주) 익스프레스 감삼점,대형마트,339440.6699,261637.9574,35.8450039593859,128.544261684036,POINT (339440.6699 261637.9574),달서구,감삼동
247,대구광역시 동구 각산동 호,,확산대형마트,대형마트,,,,,POINT EMPTY,동구,각산동
248,대구광역시 동구 각산동 호,,동대구,그 밖의 대규모점포,,,,,POINT EMPTY,동구,각산동
249,대구광역시 동구 각산동 호,,확산마트,대형마트,,,,,POINT EMPTY,동구,각산동
250,대구광역시 달서구 성당동 704번지 5호,대구광역시 달서구 당산동길 9 (성당동),두류종합시장,그 밖의 대규모점포,339519.8873,261695.2674,35.84549959093817,128.54513412953608,POINT (339519.8873 261695.2674),달서구,성당동
251,대구광역시 달서구 감삼동 55번지 5호,대구광역시 달서구 달구벌대로329길 17 (감삼동),서남시장,그 밖의 대규모점포,339503.1766,262680.2448,35.85437585223802,128.5451212256667,POINT (339503.1766 262680.2448),달서구,감삼동
252,대구광역시 달서구 본리동 65번지 3   호,,본리시장,그 밖의 대규모점포,,,35.8418219202259,128.538915096576,POINT EMPTY,달서구,본리
253,대구광역시 달서구 성당동 440호,대구광역시 달서구 장기로5길 29 (성당동),구마종합시장,그 밖의 대규모점포,340387.8874,261250.6039,35.8413189375236,128.554661112801,POINT (340387.8874 261250.6039),달서구,성당동
254,대구광역시 달서구 송현동 185번지 8   호,,송현시장,그 밖의 대규모점포,,,35.8306327108486,128.549812165381,POINT EMPTY,달서구,송현동
255,대구광역시 달서구 진천동 241번지 3   호,,월배시장,그 밖의 대규모점포,,,35.8140281154042,128.527497934841,POINT EMPTY,달서구,진천동
256,대구광역시 달서구 본동 225번지 1   호,,달서송림시장,그 밖의 대규모점포,,,35.8368477170449,128.547041832276,POINT EMPTY,달서구,본동
257,대구광역시 달서구 본동 225번지 1   호,,송경종합시장,그 밖의 대규모점포,,,35.8368477170449,128.547041832276,POINT EMPTY,달서구,본동
258,대구광역시 달서구 죽전동 410번지 1   호,,죽전시장,그 밖의 대규모점포,,,35.8510967875763,128.533996104454,POINT EMPTY,달서구,죽전동
259,대구광역시 달서구 진천동 241번지 3호 월배시장,"대구광역시 달서구 월배로24길 13, 월배시장 (진천동)",노브랜드 대구월배시장점,대형마트,337994.3199,258171.8028,35.8139712338255,128.52764515295968,POINT (337994.3199 258171.8028),달서구,진천동
260,대구광역시 달서구 송현동 1995번지 3   호,,송남시장,그 밖의 대규모점포,,,35.8289878710515,128.555402711372,POINT EMPTY,달서구,송현동
261,대구광역시 달서구 월성동 89번지 3   호,,월성청구시장,그 밖의 대규모점포,,,35.8267844688536,128.530890202909,POINT EMPTY,달서구,월성동
262,대구광역시 달서구 상인동 1517호,대구광역시 달서구 상인서로 76 (상인동),상인영남화성시장,그 밖의 대규모점포,339393.0126,258572.0198,35.8170699821619,128.542925905615,POINT (339393.0126 258572.0198),달서구,상인동
263,대구광역시 달서구 상인동 42호,대구광역시 달서구 월곡로 320 (상인동),보성은하상가시장,그 밖의 대규모점포,338692.1616,259135.2432,35.8225859044615,128.535373962971,POINT (338692.1616 259135.2432),달서구,상인동
264,대구광역시 달서구 이곡동 1191호,대구광역시 달서구 계대동문로 99 (이곡동),성서보성화성상가시장,그 밖의 대규모점포,335707.7432,262821.9934,35.8567375089517,128.503493251887,POINT (335707.7432 262821.9934),달서구,이곡동
265,대구광역시 달서구 이곡동 1254호,대구광역시 달서구 이곡동로 24 (이곡동),(주)이마트 성서점,대형마트,336343.9455,262554.7438,35.8537660976122,128.510183892051,POINT (336343.9455 262554.7438),달서구,이곡동
266,대구광역시 달서구 호림동 16번지,"대구광역시 달서구 달서대로 411 (호림동, 모다아울렛)",모다아울렛(MODAoutlet),전문점,334682.6261,260547.8959,35.8360033167832,128.491379397886,POINT (334682.6261 260547.8959),달서구,호림동
267,대구광역시 달서구 용산동 230번지 11호,대구광역시 달서구 달구벌대로 1467 (용산동),홈플러스(주) 성서점,대형마트,337916.0799,262111.0617,35.8530922401472,128.527508817331,POINT (337916.0799 262111.0617),달서구,용산동
268,대구광역시 달서구 상인동 171번지 1호,대구광역시 달서구 월배로 183 (상인동),홈플러스(주)  상인점,대형마트,338508.0397,258645.861,35.818169893765315,128.53340945710755,POINT (338508.0397 258645.861),달서구,상인동
269,대구광역시 달서구 도원동 1442번지 1호,대구광역시 달서구 도원로 36 (도원동),홈플러스(주) 익스프레스 도원점,복합쇼핑몰,338706.8833,257347.5946,35.8056654320683,128.534643503481,POINT (338706.8833 257347.5946),달서구,도원동
270,대구광역시 달서구 본동 619번지,대구광역시 달서구 월성로 14 (본동),롯데쇼핑(주)롯데슈퍼 월성점,시장,338551.0662,260132.2929,35.8315987679587,128.534080342418,POINT (338551.0662 260132.2929),달서구,본동
271,대구광역시 수성구 범어동 1004호,,신천시장,그 밖의 대규모점포,,,,,POINT EMPTY,수성구,범어동
272,대구광역시 수성구 수성동2가 39번지 4호 수성종합시장,"대구광역시 수성구 들안로 281, 수성종합시장 (수성동2가)",수성시장,그 밖의 대규모점포,345973.901,262874.6775,35.85518604698441,128.6167635455663,POINT (345973.901 262874.6775),수성구,수성동
273,대구광역시 수성구 수성동2가 39-1호,,동성시장,그 밖의 대규모점포,,,,,POINT EMPTY,수성구,수성동
274,대구광역시 수성구 범어동 29-1호,,로타리시장,그 밖의 대규모점포,,,,,POINT EMPTY,수성구,범어동
275,대구광역시 수성구 만촌동 640호,,만촌시장,그 밖의 대규모점포,,,,,POINT EMPTY,수성구,만촌동
276,대구광역시 수성구 수성동2가 39-4 수성종합시장,"대구광역시 수성구 들안로 281, 태백시장 (수성동2가)",태백시장,그 밖의 대규모점포,345973.901,262874.6775,35.855115449639,128.616724866305,POINT (345973.901 262874.6775),수성구,수성동
277,대구광역시 수성구 만촌동 984-1호,,청구시장,그 밖의 대규모점포,,,,,POINT EMPTY,수성구,만촌동
278,대구광역시 수성구 만촌동 984-1호,,황금시장,그 밖의 대규모점포,,,,,POINT EMPTY,수성구,만촌동
279,대구광역시 수성구 황금동 746번지,"대구광역시 수성구 청솔로 19 (황금동, 황금시장)",황금시장,그 밖의 대규모점포,346282.1983,262132.3996,35.8482819506832,128.619972597432,POINT (346282.1983 262132.3996),수성구,황금동
280,대구광역시 수성구 범어동 432-1호,,새범어종합시장,그 밖의 대규모점포,,,,,POINT EMPTY,수성구,범어동
281,대구광역시 수성구 수성동1가 649-76호,,수성현대시장,그 밖의 대규모점포,,,,,POINT EMPTY,수성구,수성동
282,대구광역시 수성구 수성동1가 649-76호,,대공원시장,그 밖의 대규모점포,,,,,POINT EMPTY,수성구,수성동
283,대구광역시 수성구 만촌동 858호,대구광역시 수성구 교학로2길 23 (만촌동),만촌종합시장,그 밖의 대규모점포,349116.4803,262914.6811,35.8549152788503,128.651550264403,POINT (349116.4803 262914.6811),수성구,만촌동
284,대구광역시 수성구 만촌1동 1356번지 5호,대구광역시 수성구 동원로 136 (만촌동),(주)이마트 만촌점,대형마트,347757.9856,264692.7442,35.8709430437484,128.634027465405,POINT (347757.9856 264692.7442),수성구,만촌1동
285,대구광역시 수성구 만촌동 881호,대구광역시 수성구 교학로5길 92-5 (만촌동),선스포츠프라자,그 밖의 대규모점포,,,,,POINT EMPTY,수성구,만촌동
286,대구광역시 수성구 두산동 743-5호,,메가플러스,그 밖의 대규모점포,,,35.8246512654237,128.62531680982,POINT EMPTY,수성구,두산동
287,대구광역시 수성구 지산동 994호,대구광역시 수성구 동대구로12안길 10 (지산동),두원시장,그 밖의 대규모점포,346786.9139,260749.3995,35.8358059148216,128.625235698448,POINT (346786.9139 260749.3995),수성구,지산동
288,대구광역시 수성구 지산동 1199번지 10호,대구광역시 수성구 용학로42길 9 (지산동),지산목련시장,그 밖의 대규모점포,347420.4001,259103.974,35.8211619679621,128.631758276334,POINT (347420.4001 259103.974),수성구,지산동
289,대구광역시 수성구 황금동 366번지 캐슬골드파크 2단지,"대구광역시 수성구 청수로 235, 종합상가동 (황금동, 캐슬골드파크 2단지)",롯데 프리미엄 푸드마켓 황금점,구분없음,347544.0892,261408.2129,35.8416798620396,128.633685231479,POINT (347544.0892 261408.2129),수성구,황금동
290,대구광역시 수성구 중동 333번지 7호,대구광역시 수성구 수성로 227 (중동),롯데쇼핑(주)롯데슈퍼 수성점,구분없음,345582.7818,261837.876,35.8455270549458,128.611954240157,POINT (345582.7818 261837.876),수성구,중동
291,대구광역시 수성구 범물1동 1273번지 동아백화점수성점,"대구광역시 수성구 지범로 191 (범물동,동아백화점수성점)",동아백화점 수성점,복합쇼핑몰,348194.4994,259144.5193,35.8211121345129,128.640448806551,POINT (348194.4994 259144.5193),수성구,범물1동
292,대구광역시 수성구 수성동4가 1090번지 8호 수성하이츠 쇼핑몰,"대구광역시 수성구 수성로 393 (수성동4가,수성하이츠 쇼핑몰)",수성하이츠 쇼핑몰,복합쇼핑몰,345663.5998,263506.5001,35.860924207968026,128.61344492254895,POINT (345663.5998 263506.5001),수성구,수성동
293,대구광역시 수성구 두산동 113호  SK리더스뷰 지하1층,대구광역시 수성구 동대구로 95 (두산동),홈플러스 대구 수성점,대형마트,346586.098,261066.0952,35.8387186092948,128.623094441987,POINT (346586.098 261066.0952),수성구,두산동
530,대구광역시 중구 공평동 58번지 6호,대구광역시 중구 동성로6길 61 (공평동),태왕스파크,그 밖의 대규모점포,344317.2196,264349.4852,35.86871766695151,128.59869676685284,POINT (344317.2196 264349.4852),중구,공평동
582,대구광역시 중구 대신동 115-30 동산상가,"대구광역시 중구 큰장로26길 65, 동산상가 (대신동)",동산상가,그 밖의 대규모점포,342780.4457,264345.3644,35.8689902585842,128.581726178462,POINT (342780.4457 264345.3644),중구,대신동
583,대구광역시 중구 동성로2가 41번지 8호,대구광역시 중구 국채보상로 지하 580 (동성로2가),(주)대현프리몰 대구점,시장,344058.726,264583.432,35.87086329960003,128.59587792581718,POINT (344058.726 264583.432),중구,동성로2가
584,대구광역시 중구 대신동 115-1 대신지하상가,"대구광역시 중구 국채보상로 지하470, 대신지하상가 (대신동)",대신지하상가,그 밖의 대규모점포,342797.3745,264457.4201,35.8693079008823,128.582315399953,POINT (342797.3745 264457.4201),중구,대신동
585,대구광역시 중구 태평로1가 1번지 186호,대구광역시 중구 태평로 177-2 (태평로1가),번개시장,그 밖의 대규모점포,344182.4874,265065.5351,35.87518835884166,128.59733489608868,POINT (344182.4874 265065.5351),중구,태평로1가
586,대구광역시 중구 남산동 2466번지 1   호,,보성황실시장,그 밖의 대규모점포,,,35.860196204561,128.581277865884,POINT EMPTY,중구,남산동
587,대구광역시 중구 덕산동 88 반월당역,"대구광역시 중구 달구벌대로 지하 2100, 반월당역 (덕산동)",메트로센터,그 밖의 대규모점포,343820.4077,264018.8761,35.8658738964292,128.592985536696,POINT (343820.4077 264018.8761),중구,덕산동
588,"대구광역시 중구 삼덕동1가 15-1, 3",대구광역시 중구 동성로3길 35 (삼덕동1가),흥구삼덕빌딩,전문점,344203.8918,264147.0647,35.866910738852305,128.59740585599712,POINT (344203.8918 264147.0647),중구,삼덕동
589,대구광역시 중구 덕산동 53-3 동아쇼핑,"대구광역시 중구 달구벌대로 2085, 동아쇼핑 (덕산동)",동아쇼핑점,쇼핑센터,343705.561,264056.6309,35.8662064020823,128.591817679241,POINT (343705.561 264056.6309),중구,덕산동
590,대구광역시 중구 계산동2가 200 현대백화점,대구광역시 중구 달구벌대로 2077 (계산동2가),현대백화점 대구점,복합쇼핑몰,343588.7356,264119.0108,35.8668325627172,128.590630661135,POINT (343588.7356 264119.0108),중구,계산동
591,대구광역시 중구 남산4동 2971번지 11호,대구광역시 중구 달구벌대로 1936 (남산동),롯데쇼핑(주) 롯데슈퍼남산점,구분없음,342303.1235,263634.2945,35.86256883139329,128.57627661932185,POINT (342303.1235 263634.2945),중구,남산4동
592,대구광역시 달성군 현풍읍 원교리 113번지,대구광역시 달성군 현풍읍 현풍로10길 74,(주)서원유통 탑마트 현풍점,대형마트,330601.3358,244543.5524,35.6921053923058,128.445128288454,POINT (330601.3358 244543.5524),달성군,현풍읍
593,대구광역시 달성군 유가읍 봉리 619번지 테크노폴리스 M스퀘어+,"대구광역시 달성군 유가읍 테크노상업로 120, 테크노폴리스 M스퀘어+",M SQUARE +,쇼핑센터,332209.6782,244660.4045,35.6929961179415,128.462927258184,POINT (332209.6782 244660.4045),달성군,유가
594,대구광역시 중구 동인동4가 460호,,중앙시장,그 밖의 대규모점포,,,,,POINT EMPTY,중구,동인동
595,대구광역시 중구 봉산동 127번지 1호 외,"대구광역시 중구 달구벌대로 지하 2160 (봉산동,외)",메트로프라자,그 밖의 대규모점포,344083.4887,263931.2059,35.864983768958325,128.59603427163245,POINT (344083.4887 263931.2059),중구,봉산동
596,대구광역시 중구 대신동 2105번지,대구광역시 중구  큰장로26길  25 (대신동),서문시장2지구종합상가,그 밖의 대규모점포,342582.198,264326.5581,35.8688980919102,128.579519716465,POINT (342582.198 264326.5581),중구,대신동
597,대구광역시 중구 남산동 3006 반월당효성해링턴플레이스,"대구광역시 중구 중앙대로66길 20 (남산동, 반월당효성해링턴플레이스)",탑마트 대구점,대형마트,343902.0801,263530.8099,35.8613814900115,128.593911094088,POINT (343902.0801 263530.8099),중구,남산동
598,대구광역시 남구 대명동 959번지 1호,대구광역시 남구 대명로 116 (대명동),홈플러스(주)남대구점,대형마트,341799.0168,261012.251,35.83901954621881,128.57023196914565,POINT (341799.0168 261012.251),남구,대명동
935,대구광역시 중구 동산동 562호,대구광역시 중구 달성로 18 (동산동),베네시움,그 밖의 대규모점포,342873.7088,264097.4821,35.8667295528512,128.582704646312,POINT (342873.7088 264097.4821),중구,동산동
936,대구광역시 중구 덕산동 38호,대구광역시 중구 종로 8 (덕산동),덕산시장,그 밖의 대규모점포,343755.7269,264103.2497,35.8665896480953,128.592457497653,POINT (343755.7269 264103.2497),중구,덕산동
937,대구광역시 중구 동인동4가 460호,,동국철물시장,그 밖의 대규모점포,,,,,POINT EMPTY,중구,동인동
938,대구광역시 중구 교동 67-12 교동시장,"대구광역시 중구 교동길 40, 교동시장 (교동)",교동시장,그 밖의 대규모점포,344114.1962,264837.5817,35.8731461889265,128.596584120913,POINT (344114.1962 264837.5817),중구,교동
939,대구광역시 중구 대봉동 55번지 61  호,,대구맨션마켓,그 밖의 대규모점포,,,,,POINT EMPTY,중구,대봉동
940,대구광역시 중구 대신동 115번지 400 호,,서문시장제5지구시장,그 밖의 대규모점포,,,35.8681409498908,128.578436647962,POINT EMPTY,중구,대신동
942,대구광역시 중구 대신동 115-379 서문시장 1지구,"대구광역시 중구 큰장로28길 10, 서문시장 1지구 (대신동)",서문시장제1지구포목시장,그 밖의 대규모점포,342609.2261,264390.3521,35.8693644271198,128.579849157629,POINT (342609.2261 264390.3521),중구,대신동
943,대구광역시 중구 대신동 115번지 377 호,,서문시장제4지구시장,그 밖의 대규모점포,,,35.8694501635708,128.580729817332,POINT EMPTY,중구,대신동
944,대구광역시 중구 남산동 698번지 22  호,,남문시장,그 밖의 대규모점포,,,35.8609895778292,128.591927217326,POINT EMPTY,중구,남산동
1581,대구광역시 수성구 범어동 2291 수성 범어W,"대구광역시 수성구 달구벌대로 2436, 1층 110~112호 (범어동, 수성 범어W)",GS THE FRESH 대구범어역점,구분없음,,,35.8579241690404,128.628708968141,POINT EMPTY,수성구,범어동
1583,대구광역시 동구 신암동 139-69 동대구역센텀화성파크드림아파트,"대구광역시 동구 아양로 133, 301동 101호~105호 (신암동, 동대구역센텀화성파크드림아파트)",GS THE FRESH 대구파크드림점,대형마트,346871.644,266386.0107,35.8869552572989,128.628082171223,POINT (346871.644 266386.0107),동구,신암동
1631,대구광역시 북구 동천동 894번지 1호,대구광역시 북구 동암로 90 (동천동),세븐밸리,그 밖의 대규모점포,340718.2536,272659.9751,35.94411062933499,128.56033003944103,POINT (340718.2536 272659.9751),북구,동천동
1756,대구광역시 동구 신천동 353-1,"대구광역시 동구 화랑로 33, 301동 113호~117호 (신천동)",GS THE FRESH 대구화랑로점,대형마트,347242.9847,264478.8084,35.8695038508674,128.631089588375,POINT (347242.9847 264478.8084),동구,신천동
1764,대구광역시 중구 수창동 178 대구역 제일풍경채 위너스카이,"대구광역시 중구 달성로26길 70, 상가동 106호, 108~110호 (수창동, 대구역 제일풍경채 위너스카이)",GS THE FRESH 대구역풍경채점,구분없음,,,35.8749505976697,128.586079550509,POINT EMPTY,중구,수창동
2059,대구광역시 동구 율하동 1418,대구광역시 동구 안심로22길 60-23 (율하동),(주)이마트에브리데이 율하점,구분없음,352986.5914,263876.4746,35.8629244208641,128.694518946113,POINT (352986.5914 263876.4746),동구,율하동
2179,대구광역시 달성군 구지면 응암리 1251 대구국가산단 반도유보라 아이비파크 2,"대구광역시 달성군 구지면 국가산단북로60길 59, 131동 지하1층 101~112호 (대구국가산단 반도유보라 아이비파크 2)",롯데프레시 대구구지점,쇼핑센터,328501.3843,240739.9385,35.6579129495383,128.421739747487,POINT (328501.3843 240739.9385),달성군,구지면
2567,대구광역시 달서구 월성동 682 월성 삼정그린코아 에듀파크,"대구광역시 달서구 월성로 100, 501동 107,108,109,110호 (월성동, 월성 삼정그린코아 에듀파크)",GS THE FRESH 월성삼정점,구분없음,337668.1555,259973.0326,35.83024491297722,128.52434742525517,POINT (337668.1555 259973.0326),달서구,월성동
2847,대구광역시 수성구 노변동 452-2,대구광역시 수성구 노변공원로 85 (노변동),GS THE FRSH(대구노변점),구분없음,353394.6185,260767.9427,35.8346073415157,128.698361578908,POINT (353394.6185 260767.9427),수성구,노변동
2852,대구광역시 수성구 노변동 452-2,대구광역시 수성구 노변공원로 85 (노변동),GS THE FRESH(대구노변점),구분없음,353394.6185,260767.9427,35.8346073415157,128.698361578908,POINT (353394.6185 260767.9427),수성구,노변동
2853,대구광역시 북구 산격동 1668호,대구광역시 북구 유통단지로14길 22 (산격동),대구종합유통단지 일반의류관,그 밖의 대규모점포,345320.3323,268402.3727,35.9052898245815,128.610384064784,POINT (345320.3323 268402.3727),북구,산격동
2854,대구광역시 북구 칠성동2가 20-1호,,스펙트럼시티,그 밖의 대규모점포,,,,,POINT EMPTY,북구,칠성동
2855,대구광역시 북구 동천동 968호,대구광역시 북구 동암로12길 8 (동천동),삼성테스코(주)홈프러스 칠곡점,대형마트,340320.7227,272735.6757,35.9448282847914,128.555911273392,POINT (340320.7227 272735.6757),북구,동천동
2856,대구광역시 북구 칠성동2가 378번지 23호,대구광역시 북구 중앙대로 543 (칠성동2가),홈프러스대구점,대형마트,344041.4936,265698.7897,35.88091405483575,128.59588855529094,POINT (344041.4936 265698.7897),북구,칠성동
2857,대구광역시 북구 관음동 1369번지 1호,대구광역시 북구 관음로 43 (관음동),한국까르푸(주) 강북점,그 밖의 대규모점포,338898.1578,271593.8975,35.9353392013894,128.540466117707,POINT (338898.1578 271593.8975),북구,관음동
2858,대구광역시 북구 관음동 1369번지 1호,대구광역시 북구 관음로 43 (관음동),한국까르푸칠곡점,대형마트,338898.1578,271593.8975,35.9353392013894,128.540466117707,POINT (338898.1578 271593.8975),북구,관음동
2859,대구광역시 북구 산격동 1817호,대구광역시 북구 검단로 97 (산격동),코스트코홀세일,대형마트,346013.6515,268532.1899,35.9062798581929,128.618081224985,POINT (346013.6515 268532.1899),북구,산격동
2881,대구광역시 서구 내당4동 308번지 11호 삼익뉴타운아파트 지하상가동,"대구광역시 서구 평리로 236 (내당동,삼익뉴타운아파트 지하상가동)",롯데쇼핑(주) 롯데슈퍼 내당점,복합쇼핑몰,339846.0304,263397.3231,35.860787341608564,128.5490409981832,POINT (339846.0304 263397.3231),서구,내당4동
2882,대구광역시 서구 내당동 호 965,,롯데쇼핑(주)마그넷서대구점,대형마트,,,,,POINT EMPTY,서구,내당동
2883,대구광역시 서구 내당동 65-8호,,(주)서원유통 탑마트대구점,대형마트,,,,,POINT EMPTY,서구,내당동
2884,대구광역시 서구 비산동 1612-3번지 9호,,월마트비산점,그 밖의 대규모점포,,,,,POINT EMPTY,서구,비산동
2885,대구광역시 서구 내당동 65-8호,,(주)서원유통 탑마트대구점,그 밖의 대규모점포,,,,,POINT EMPTY,서구,내당동
2886,대구광역시 서구 내당동 965호,대구광역시 서구 달서로 42 (내당동),롯데쇼핑(주)롯데마트 서대구점,그 밖의 대규모점포,341860.4196,264004.4593,35.8661751006667,128.571440454931,POINT (341860.4196 264004.4593),서구,내당동
2887,대구광역시 서구 비산동 1612번지 3호,,(주)신세계마트이마트 비산점,대형마트,,,,,POINT EMPTY,서구,비산동
2888,대구광역시 동구 검사동 908번지 5호,,까르푸 동촌 하이퍼마켓,대형마트,349426.8054,266377.8548,35.88622531154859,128.655629714868,POINT (349426.8054 266377.8548),동구,검사동
2889,대구광역시 달서구 두류동 1216번지 1   호,,서대구시장,그 밖의 대규모점포,,,35.8606374338261,128.570946541617,POINT EMPTY,달서구,두류동
2890,대구광역시 달서구 본동 881호,대구광역시 달서구 와룡로5길 20 (본동),주식회사지마트(G-MART),대형마트,338678.7973,260540.3643,35.8352417455198,128.535600001593,POINT (338678.7973 260540.3643),달서구,본동
2891,대구광역시 달서구 감삼동 521호,,메이드아울렛,대형마트,338560.6949,261656.2406,35.8452250813298,128.534656661039,POINT (338560.6949 261656.2406),달서구,감삼동
2916,대구광역시 중구 덕산동 88호 번지외,,메트로센터,그 밖의 대규모점포,343820.4077,264018.8761,35.8658738964292,128.592985536696,POINT (343820.4077 264018.8761),중구,덕산동
2945,대구광역시 중구 동인동2가 470-2호,,(주)동부시장,그 밖의 대규모점포,,,,,POINT EMPTY,중구,동인동
2946,대구광역시 중구 동인동4가 460호,,동부시장,그 밖의 대규모점포,,,,,POINT EMPTY,중구,동인동
3024,대구광역시 북구 칠성동2가 378번지 23호,대구광역시 북구 중앙대로 543 (칠성동2가),홈플러스 대구점,그 밖의 대규모점포,344041.4936,265698.7897,35.88091405483575,128.59588855529094,POINT (344041.4936 265698.7897),북구,칠성동
3191,대구광역시 북구 칠성동2가 725번지,대구광역시 북구 호암로 1 (칠성동2가),롯데쇼핑(주)롯데마트 칠성점,대형마트,343627.714,265993.9842,35.8838650608351,128.59109339633,POINT (343627.714 265993.9842),북구,칠성동
3192,대구광역시 북구 동천동 927번지,대구광역시 북구 대천로17길 5 (동천동),롯데쇼핑(주)롯데슈퍼동천점,그 밖의 대규모점포,340547.7808,271944.9397,35.9377302141945,128.558327052149,POINT (340547.7808 271944.9397),북구,동천동
3193,대구광역시 북구 동천동 876번지 5호,대구광역시 북구 동천로 5-7 (동천동),롯데프레시 대구칠곡가맹점,그 밖의 대규모점포,340486.8731,271332.9202,35.9321627520608,128.557837708614,POINT (340486.8731 271332.9202),북구,동천동
3237,대구광역시 달서구 감삼동 69번지 8호,대구광역시 달서구 달구벌대로 1599 (감삼동),롯데쇼핑(주)롯데슈퍼 감삼점,대형마트,339153.8927,262422.7127,35.8524180592546,128.541240818714,POINT (339153.8927 262422.7127),달서구,감삼동
3238,대구광역시 달서구 진천동 731번지 13호,대구광역시 달서구 상화로 33 (진천동),롯데쇼핑(주)롯데슈퍼 대구진천점,대형마트,337191.3458,257587.9947,35.7943890422154,128.530124847323,POINT (337191.3458 257587.9947),달서구,진천동
3239,대구광역시 달서구 상인동 1475번지,"대구광역시 달서구 상화북로 160, A동 101호 (상인동, 백조아파트상가)",(주)지에스리테일 GS수퍼 대구상인점,대형마트,,,35.8106138932528,128.540629813406,POINT EMPTY,달서구,상인동
3240,대구광역시 달서구 상인동 1595번지,"대구광역시 달서구 조암남로 17, 101~103호 (상인동)",(주)지에스리테일 GS수퍼 대구월서점,대형마트,338300.7451,259066.1237,35.8220378894228,128.531074109707,POINT (338300.7451 259066.1237),달서구,상인동
3241,대구광역시 달서구 월성동 273번지 4호,"대구광역시 달서구 월성로 42, 115호 117호 (월성동)",(주)지에스리테일 GS수퍼 월성점,대형마트,338254.8885,260132.208,35.8324469380722,128.530447885264,POINT (338254.8885 260132.208),달서구,월성동
3242,대구광역시 달서구 감삼동 507번지 1호,대구광역시 달서구 장기로 238 (감삼동),(주)이마트에브리데이 감삼동점,대형마트,338567.0665,261520.851,35.84406322153188,128.53456060854293,POINT (338567.0665 261520.851),달서구,감삼동
3243,대구광역시 서구 중리동 26번지 1호 중리롯데캐슬아파트 상가,"대구광역시 서구 국채보상로34길 12 (중리동,중리롯데캐슬아파트 상가)",홈플러스 익스프레스 중리점,대형마트,339735.1027,264105.4131,35.867182471723794,128.54793726089102,POINT (339735.1027 264105.4131),서구,중리
3244,대구광역시 동구 지묘동 327번지 팔공보성2차아파트 208동,,팔공보성2차상가아파트,시장,348108.8842,272394.0029,35.9405785276716,128.64248885535,POINT (348108.8842 272394.0029),동구,지묘동
3245,대구광역시 동구 지저동 770번지 3호,대구광역시 동구 해동로 30 (지저동),롯데슈퍼 지저점,쇼핑센터,347754.9547,267380.6028,35.89551234310023,128.63730745822622,POINT (347754.9547 267380.6028),동구,지저동
3246,대구광역시 동구 율하동 1431번지,대구광역시 동구 안심로22길 60-1 (율하동),롯데슈퍼 율하점,쇼핑센터,353326.3451,263851.3576,35.8625502377062,128.698260242617,POINT (353326.3451 263851.3576),동구,율하동
3247,대구광역시 달서구 월성1동 89번지 2호,대구광역시 달서구 학산로 17 (월성동),홈플러스(주)익스프레스 월성점,대형마트,338293.8616,259678.7142,35.82750538102912,128.5312188749874,POINT (338293.8616 259678.7142),달서구,월성1동
3248,대구광역시 동구 신암2동 1286번지 4호,대구광역시 동구 신암로16길 7 (신암동),DISCOUNT STORE 신암점,쇼핑센터,345290.7816,265401.0546,35.87804739219424,128.6096638137671,POINT (345290.7816 265401.0546),동구,신암2동
3249,대구광역시 달서구 감삼동 521번지,대구광역시 달서구 와룡로 143 (감삼동),(주)이마트 감삼점,대형마트,338560.6949,261656.2406,35.8452250813298,128.534656661039,POINT (338560.6949 261656.2406),달서구,감삼동
3250,대구광역시 달서구 이곡동 1196번지 3호,대구광역시 달서구 계대동문로 102 (이곡동),홈플러스(주) 익스프레스 이곡점,대형마트,335728.2735,262684.1655,35.8550929150724,128.502476231809,POINT (335728.2735 262684.1655),달서구,이곡동
3251,대구광역시 달서구 상인1동 518번지 2호,대구광역시 달서구 월곡로 219 (상인동),홈플러스(주) 익스프레스 대구월촌점,대형마트,339246.9945,258241.3607,35.81442116569195,128.54151303764095,POINT (339246.9945 258241.3607),달서구,상인1동
3252,대구광역시 수성구 범어동 792번지 43호,대구광역시 수성구 동대구로59길 14-19 (범어동),범어시장,시장,346578.1394,263225.7216,35.858258465587355,128.62351461967182,POINT (346578.1394 263225.7216),수성구,범어동
3253,대구광역시 수성구 지산동 1199번지 10호,대구광역시 수성구 용학로42길 9 (지산동),지산목련시장,그 밖의 대규모점포,347420.4001,259103.974,35.8211619679621,128.631758276334,POINT (347420.4001 259103.974),수성구,지산동
3254,대구광역시 수성구 황금동 837호,대구광역시 수성구 동대구로29길 24 (황금동),대자연시장,시장,346561.7614,261625.0521,35.8437317555221,128.622954548331,POINT (346561.7614 261625.0521),수성구,황금동
3255,대구광역시 수성구 만촌동 881호,대구광역시 수성구 교학로5길 92-5 (만촌동),만촌중앙시장,그 밖의 대규모점포,,,,,POINT EMPTY,수성구,만촌동
3256,대구광역시 수성구 범어동 559-5호,,대백가구본점,대형마트,,,,,POINT EMPTY,수성구,범어동
3257,대구광역시 수성구 범어동 559번지 5   호,,대백동점,그 밖의 대규모점포,,,,,POINT EMPTY,수성구,범어동
3258,대구광역시 수성구 수성동4가 1090-8호,,수성하이츠쇼핑몰,그 밖의 대규모점포,,,,,POINT EMPTY,수성구,수성동
3260,"대구광역시 수성구 만촌동 1356-5, 1343-3호",대구광역시 수성구 동원로 136 (만촌동),(주)이마트만촌점,대형마트,347499.572,264675.115,35.871177665371675,128.63397956064924,POINT (347499.572 264675.115),수성구,만촌동
3261,대구광역시 수성구 만촌동 1356번지 5호,대구광역시 수성구 동원로 136 (만촌동),(주)신세계이마트만촌점,대형마트,347757.9856,264692.7442,35.8709430437484,128.634027465405,POINT (347757.9856 264692.7442),수성구,만촌동
3262,대구광역시 수성구 신매동 566번지 3호,대구광역시 수성구 고산로 101 (신매동),월마트코리아(주)시지점,대형마트,353893.9053,261327.1329,35.8405567761363,128.704147836174,POINT (353893.9053 261327.1329),수성구,신매동
3263,대구광역시 수성구 신매동 566번지 3호,대구광역시 수성구 고산로 101 (신매동),(주)이마트 시지점,전문점,353893.9053,261327.1329,35.8405567761363,128.704147836174,POINT (353893.9053 261327.1329),수성구,신매동
3264,대구광역시 수성구 지산2동 1160번지 74호,대구광역시 수성구 지범로 59 (지산동),롯데쇼핑(주) 롯데슈퍼 지산2동점,구분없음,347202.2479,259665.9237,35.82641598465,128.62907616868,POINT (347202.2479 259665.9237),수성구,지산2동
3265,대구광역시 수성구 범물1동 1334번지 1호,대구광역시 수성구 지범로 190 (범물동),(주)지에스리테일 GS수퍼 대구범물점,구분없음,348134.9868,259096.4533,35.82082473263176,128.63997828610428,POINT (348134.9868 259096.4533),수성구,범물1동
3266,"대구광역시 수성구 신매동 30번지 5호 시지효성백년가약1단지 301동 130,1호","대구광역시 수성구 달구벌대로 3280, 301동 130,131,132,133,134호 (신매동, 시지효성백년가약1단지아파트)",(주)대구백화점 디마켓 프라임,구분없음,354859.8784,260997.4364,35.8360327374048,128.713303434091,POINT (354859.8784 260997.4364),수성구,신매동
3267,대구광역시 수성구 대흥동 504번지,대구광역시 수성구 유니버시아드로 140 (대흥동),홈플러스 대구스타디움점,대형마트,352335.045,260158.7502,35.8277910771265,128.685163996759,POINT (352335.045 260158.7502),수성구,대흥동
3268,대구광역시 수성구 수성동3가 57번지 롯데캐슬 101동,"대구광역시 수성구 명덕로 455 (수성동3가,롯데캐슬 101동)",롯데쇼핑(주)롯데슈퍼 수성캐슬점,구분없음,346260.2374,262934.15,35.8556069787821,128.619918738439,POINT (346260.2374 262934.15),수성구,수성동
3269,대구광역시 수성구 지산1동 1297번지 3호 지산서한이다음아파트 상가 409동,"대구광역시 수성구 용학로 313, 409동 (지산동,지산서한이다음아파트 상가)",롯데쇼핑(주) 롯데슈퍼 대구지산점,구분없음,348304.2647,259445.1711,35.8245043371489,128.642419153677,POINT (348304.2647 259445.1711),수성구,지산1동
3321,대구광역시 중구 동성로2가 125호,대구광역시 중구 동성로 17 (동성로2가),프라이비트 대구점,그 밖의 대규모점포,343957.8944,264325.1302,35.8685288608203,128.594749966344,POINT (343957.8944 264325.1302),중구,동성로2가
3322,대구광역시 중구 동성로2가 88번지 22호,대구광역시 중구 동성로 39 (동성로2가),한일밀라노존,전문점,344009.2409,264537.6112,35.87045777044007,128.5953219290188,POINT (344009.2409 264537.6112),중구,동성로2가
3323,대구광역시 중구 동문동 20번지 4호 외 6필지,"대구광역시 중구 경상감영길 171 (동문동,외 6필지)",동아아울렛 동문본점,백화점,344148.352,264812.3537,35.87291247585196,128.59691130723883,POINT (344148.352 264812.3537),중구,동문동
3324,대구광역시 중구 사일동 15번지 1호 동성로파티,대구광역시 중구 국채보상로 585 (사일동),동성로 파티,쇼핑센터,343932.1884,264630.9449,35.871309926198414,128.59448590721536,POINT (343932.1884 264630.9449),중구,사일동
3325,대구광역시 남구 대명동 1647-3호,대구광역시 남구 두류공원로 55 (대명동),홀마트,대형마트,341891.2798,261372.7777,35.842254245756074,128.57131679726544,POINT (341891.2798 261372.7777),남구,대명동
3326,대구광역시 남구 대명동 959번지 1호,대구광역시 남구 대명로 116 (대명동),필마트,대형마트,341799.0168,261012.251,35.83901954621881,128.57023196914565,POINT (341799.0168 261012.251),남구,대명동
3407,대구광역시 중구 공평동 55번지 54  호,대구광역시 중구 동성로6길 36 (공평동),이스테이션,그 밖의 대규모점포,344182.1176,264325.5051,35.868553746633,128.597237728921,POINT (344182.1176 264325.5051),중구,공평동
3409,대구광역시 중구 동성로2가 88-22호,,한일밀라노존,전문점,,,,,POINT EMPTY,중구,동성로2가
3410,대구광역시 중구 문화동 11번지 1호,대구광역시 중구 국채보상로 611 (문화동),대구밀리오레,그 밖의 대규모점포,344223.6365,264597.6111,35.87096679489057,128.5977058069242,POINT (344223.6365 264597.6111),중구,문화동
3887,"대구광역시 수성구 대흥동 504번지 지하2층, 지상1층",대구광역시 수성구 유니버시아드로 140 (대흥동),칼라스퀘어,쇼핑센터,352335.045,260158.7502,35.8277910771265,128.685163996759,POINT (352335.045 260158.7502),수성구,대흥동
3895,대구광역시 중구 삼덕동1가 5번지 2   호,대구광역시 중구 동성로5길 25 (삼덕동1가),유플러스,전문점,344075.9536,264266.2161,35.8679321282665,128.596018274953,POINT (344075.9536 264266.2161),중구,삼덕동
4044,대구광역시 북구 서변동 899-1,대구광역시 북구 호국로51길 35 (서변동),롯데쇼핑(주)롯데슈퍼 대구서변점,구분없음,343888.6287,270482.9925,35.9242394238867,128.595003420661,POINT (343888.6287 270482.9925),북구,서변동
4068,대구광역시 수성구 신매동 30-5 시지 효성 백년가약 1단지,"대구광역시 수성구 달구벌대로 3280 (신매동, 시지 효성 백년가약 1단지)",GS THE FRESH(대구사월역점),구분없음,354859.8784,260997.4364,35.8360327374048,128.713303434091,POINT (354859.8784 260997.4364),수성구,신매동
4074,대구광역시 수성구 범어동 2262,대구광역시 수성구 범어천로 214 (범어동),범어더리브스퀘어,그 밖의 대규모점포,346156.2361,263891.0102,35.8641514066566,128.619077355953,POINT (346156.2361 263891.0102),수성구,범어동
4094,대구광역시 수성구 신매동 566-3 시지 코오롱하늘채 스카이뷰,"대구광역시 수성구 고산로 101, 시지 코오롱하늘채 스카이뷰 1-14,15.16호 (신매동)",롯데슈퍼 대구신매 가맹점,구분없음,353893.9053,261327.1329,35.8405567761363,128.704147836174,POINT (353893.9053 261327.1329),수성구,신매동
4097,대구광역시 북구 노원동3가 1022호,대구광역시 북구 팔달로35길 69 (노원동3가),노원휴먼프라자,그 밖의 대규모점포,341718.4577,266864.9019,35.8920849070364,128.57017317652,POINT (341718.4577 266864.9019),북구,노원동
4103,대구광역시 서구 비산동 1612번지 3호 외9필지,,월마트 비산점,대형마트,,,,,POINT EMPTY,서구,비산동
