약국명,주소,위도,경도
소명약국,"대구광역시 서구 문화로 230, 상가 301동 108호 (평리동, 서대구역반도유보라센텀)",35.875059707626,128.557353065481
오늘약국,"대구광역시 서구 국채보상로 223, 대원빌딩 106호 (평리동)",35.8708275910413,128.555354614905
홍약국,"대구광역시 서구 국채보상로 294, 1층 (평리동)",35.8716133608966,128.563103574195
남광약국,"대구광역시 서구 팔달로 152, 101호 (비산동)",35.888758584427,128.56662856089
명문약국,"대구광역시 서구 달구벌대로361길 1, 109, 110호 (내당동)",,
사랑약국,대구광역시 서구 북비산로 355 (비산동),35.879662890365,128.57214425898
이노약국,"대구광역시 서구 달서로 187, 1층 (비산동)",35.8789262129415,128.571000502425
중리효성약국,"대구광역시 서구 국채보상로 147, 1층 (평리동)",35.869285593354,128.54722263507
라라약국,"대구광역시 서구 원대로 33, 1층 (원대동1가)",35.8805078148094,128.580128710851
다정약국,"대구광역시 서구 달구벌대로 1771, 1층 (내당동)",35.8586653573132,128.558765367679
영남약국,"대구광역시 서구 국채보상로 246-1, 1층 (평리동)",35.8707337234223,128.557959478783
메디슨약국,"대구광역시 서구 통학로17길 25, 1층 (평리동)",35.8676193278983,128.560779662772
행운약국,"대구광역시 서구 팔달로 176, 1층 (원대동3가)",35.8884075717838,128.56925239614
가람약국,"대구광역시 서구 팔달로 54, 이마트트레이더스 1층 (비산동)",35.8899046563534,128.5559624796
다온약국,"대구광역시 서구 국채보상로 262, 1층 (평리동)",35.871044827826,128.55976249839
새대구약국,대구광역시 서구 큰장로 131 (내당동),35.8700278218136,128.579118105207
비타약국,대구광역시 서구 국채보상로 258 (평리동),35.8710165163255,128.559298705972
라온약국,"대구광역시 서구 팔달로 188, 1층 (원대동3가)",35.8881905964989,128.570532921344
온약국,"대구광역시 서구 문화로 282, 1층 (평리동)",35.8756129096275,128.563499044684
진약국,대구광역시 서구 달서로 62 (비산동),35.8674930520237,128.57124572258
서대구약국,대구광역시 서구 국채보상로 202 (평리동),35.8697423307248,128.553154646206
백세약국,대구광역시 서구 국채보상로 198 (평리동),35.8697189679181,128.552766135148
평리제일약국,"대구광역시 서구 서대구로 192, 1층 (평리동)",35.8750475259551,128.555240249963
새솔약국,"대구광역시 서구 국채보상로 379, 1층 (비산동)",35.8724585955795,128.572378220252
메디팜 보령약국,"대구광역시 서구 국채보상로 429, 1층 (비산동)",35.8715602852246,128.577961192239
최약국,"대구광역시 서구 문화로 230, 상가 301동 107호 (평리동, 서대구역반도유보라센텀)",35.875059707626,128.557353065481
샘물약국,"대구광역시 서구 북비산로 360, 1층 (비산동)",35.8791240644335,128.572538982351
참한양약국,대구광역시 서구 서대구로 74 (평리동),35.8645396816486,128.556360603214
한솔약국,대구광역시 서구 국채보상로 438 (내당동),35.8704763049258,128.578735516516
청암약국,대구광역시 서구 국채보상로 151 (평리동),35.8695208911264,128.547774582894
신평리약국,대구광역시 서구 서대구로 138 (평리동),35.8702112815688,128.555244363097
나은약국,대구광역시 서구 달서로 127-2 (비산동),35.8737064371001,128.570964630063
새 달성약국,대구광역시 서구 고성로 135 (원대동1가),35.8816133290741,128.580458062753
경북약국,대구광역시 서구 큰장로 131 (내당동),35.8700278218136,128.579118105207
메디칼현대약국,대구광역시 서구 팔달로 162 (비산동),35.8886373139864,128.567476107377
세송약국,대구광역시 서구 팔달로 164 (비산동),35.8885922456002,128.567835901562
열린온누리약국,대구광역시 서구 평리로 144 (중리동),35.8585567799697,128.54016732206
시원약국,대구광역시 서구 국채보상로 248 (평리동),35.8708200549025,128.558139975781
신성약국,대구광역시 서구 북비산로 233 (평리동),35.8794239787869,128.558727163493
대경약국,대구광역시 서구 큰장로 133 (내당동),35.8701759904086,128.57915082808
킴스약국,대구광역시 서구 팔달로 154 (비산동),35.888794877034,128.566954965367
대덕팜약국,대구광역시 서구 국채보상로 360 (비산동),35.872004330969,128.570311667228
플러스약국,"대구광역시 서구 달구벌대로 1691, 303호 (내당동, M플라자)",35.8557187655227,128.550710498388
보건약국,대구광역시 서구 평리로 158 (중리동),35.8589830237782,128.541811160964
튼튼약국,대구광역시 서구 국채보상로 354 (비산동),35.8719715178683,128.569567994085
해오름약국,"대구광역시 서구 평리로 243, 1층 (중리동)",35.8627809538684,128.549917496428
유명약국,대구광역시 서구  평리로  245 (중리동),35.8628087884536,128.55020465405
온누리소화약국,"대구광역시 서구 국채보상로 316, 201동 104호 (평리동, 평리롯데캐슬상가)",35.8717612751281,128.56508677082
소담약국,대구광역시 서구 달서로 66 (비산동),35.8680313842315,128.571253584378
행복약국,"대구광역시 서구 국채보상로 316, 201동 303호 (평리동, 평리롯데캐슬)",35.8717612751281,128.56508677082
튼튼한약국,대구광역시 서구 달구벌대로 1807 (내당동),35.8599003674415,128.562428844548
메디팜군위약국,대구광역시 서구 북비산로61길 2 (평리동),35.8796743182426,128.567229809718
참조은약국,"대구광역시 서구 국채보상로50길 20, 116동 108호 (평리동, 평리푸르지오)",35.8699780382206,128.559513513487
동원약국,대구광역시 서구 국채보상로 300 (평리동),35.8715648727356,128.563747880862
명일약국,대구광역시 서구 달서로 270 (원대동3가),35.8857289289101,128.574580120771
서남시장약국,대구광역시 서구 평리로 156 (중리동),35.8587902755557,128.541403263121
미래약국,대구광역시 서구 국채보상로 157 (평리동),35.8694982566137,128.548286197072
효성약국,"대구광역시 서구 달서천로57길 56, 1층 (비산동)",35.8890315107938,128.563173490747
메디팜 은화약국,대구광역시 서구 달구벌대로 1885 (내당동),35.8619435610477,128.570443157592
한사랑약국,대구광역시 서구 평리로 150 (중리동),35.8585843336365,128.540871682005
국도약국,대구광역시 서구 평리로29길 10 (중리동),35.8597784272065,128.539861512854
바른약국,대구광역시 서구 달구벌대로 1729-1 (내당동),35.8571214086817,128.554517132903
늘푸른약국,대구광역시 서구 통학로 54 (내당동),35.8651683653797,128.56413409943
추계약국,대구광역시 서구 달서로 260 (원대동3가),35.8850014016878,128.573984685827
평리약국,대구광역시 서구 문화로49길 31 (평리동),35.8784911735923,128.559000095845
명성약국,대구광역시 서구 달구벌대로 1867 (내당동),35.8615160502918,128.568581554111
수약국,대구광역시 서구 달서로 120 (비산동),35.8728700593176,128.571483108338
신세계약국,대구광역시 서구 큰장로 129 (내당동),35.8698237942642,128.579063902469
하나약국,대구광역시 서구 달서로 188 (비산동),35.8791192823944,128.57157566949
하늘온누리약국,대구광역시 서구 달서로 118 (비산동),35.8727387762002,128.571385629394
우리약국,대구광역시 서구 서대구로62길 3 (비산동),35.8849110104396,128.557550169058
새현약국,대구광역시 서구 달서로 191 (비산동),35.8791863357361,128.571079163106
대지약국,대구광역시 서구 서대구로62길 47 (비산동),35.8860352308828,128.561800138985
광장약국,대구광역시 서구 서대구로 58 (내당동),35.8631522771689,128.556582781012
윤약국,대구광역시 서구 달구벌대로 1805 (내당동),35.8598125068388,128.562186235107
북비산약국,대구광역시 서구 달서로 201 (비산동),35.8803130298603,128.571313906964
혜인약국,대구광역시 서구 서대구로62길 66 (비산동),35.8865219591037,128.563564451875
뉴 서대구약국,대구광역시 서구 북비산로 347 (비산동),35.8800145048342,128.570960764213
아진약국,대구광역시 서구 달구벌대로 1875 (내당동),35.8617324976349,128.569444545359
제일약국,대구광역시 서구 원대로 55 (원대동1가),35.8823074433293,128.580721002459
온누리 광명약국,대구광역시 서구 문화로 196 (평리동),35.8752349658012,128.554028847175
천일약국,대구광역시 서구 서대구로 188 (평리동),35.8747668272702,128.555211732405
메디칼 후문약국,대구광역시 서구 평리로33길 12 (중리동),35.8600704277847,128.541503440143
한가족약국,대구광역시 서구 달서로 159 (비산동),35.8765007313832,128.570983603736
한독약국,대구광역시 서구 달구벌대로 1733 (내당동),35.8572131827046,128.554730135397
수영약국,대구광역시 서구 달서로 184-1 (비산동),35.8787335524346,128.571564948041
경성약국,대구광역시 서구 달구벌대로375길 1 (내당동),35.8615695574461,128.568728072463
동남약국,대구광역시 서구 통학로 27 (내당동),35.8626527284281,128.564078128437
서약국,대구광역시 서구 국채보상로46길 57 (평리동),35.8655096706048,128.557334546574
새솔밭약국,대구광역시 서구 달구벌대로329길 79 (중리동),35.857077826864,128.544650618708
원고개약국,대구광역시 서구 통학로48길 44 (비산동),35.8811983333624,128.567823678753
부광약국,"대구광역시 서구 서대구로 66, 1층 (평리동)",35.86397659121,128.556406384147
대양약국,대구광역시 서구 통학로 86-1 (평리동),35.8680725571477,128.563596325899
달성약국,대구광역시 서구 북비산로74길 41 (비산동),35.8772429320712,128.577273037312
수정약국,"대구광역시 서구 북비산로 244, 1층 (평리동)",35.878963859795,128.559691441427
메디팜 서진약국,대구광역시 서구 문화로 197 (평리동),35.8755366240705,128.55402543918
극동약국,대구광역시 서구 북비산로 160 (평리동),35.8785678428397,128.55055822213
유창약국,대구광역시 서구 서대구로 304 (비산동),35.8846923366877,128.557179241042
건강당약국,대구광역시 서구 문화로 300-1 (평리동),35.8756555861011,128.565556448307
우성약국,대구광역시 서구 북비산로 319-1 (비산동),35.8797050227497,128.568294735745
동화약국,대구광역시 서구 평리로55길 17 (평리동),35.8652143630295,128.55363963215
천우당약국,대구광역시 서구 달서로 76 (비산동),35.8689772661137,128.571229969365
보성약국,대구광역시 서구 북비산로74길 46 (비산동),35.8768470465013,128.577418097894
희온누리약국,"대구광역시 서구 평리로 236, 111호 (내당동)",35.8621568323449,128.54974172186
경명약국,대구광역시 서구 달서천로49길 15 (비산동),35.8849035493356,128.559881453583
세일약국,대구광역시 서구 달서천로41길 66-4 (비산동),35.8877298939673,128.56070044586
봉산약국,대구광역시 서구 북비산로74길 8-1 (비산동),35.8785415351339,128.574033902065
일층봄약국,"대구광역시 달서구 달구벌대로 1521, 1층 (용산동)",35.85003,128.5332
에덴시민약국,"대구광역시 달서구 달구벌대로 1672, 1층 (두류동)",35.8542544,128.5490451
건행약국,"대구광역시 달서구 두류공원로28길 26, 1층 (성당동)",35.8484068,128.5676894
즐거운약국,"대구광역시 달서구 달구벌대로205길 12, 1층 (호산동)",35.8534662,128.4790056
삼층약국,"대구광역시 달서구 와룡로 186, 401동 319호 (감삼동, 빌리브 스카이 주상복합)",35.8497406,128.5379347
월배에스약국,"대구광역시 달서구 월배로 147, 1층 (진천동)",35.8163551,128.5301845
한솔약국,"대구광역시 달서구 달구벌대로 1634, 1층 (감삼동)",35.8494773,128.5403023
봄봄약국,"대구광역시 달서구 달구벌대로 1800, 106호 (두류동)",35.8578169,128.563151
봄날약국,"대구광역시 달서구 월배로 203, 1층 (상인동)",35.8185104,128.5359285
고래약국,"대구광역시 달서구 상화북로 186, 1층 (상인동)",35.8129188,128.5462653
대경약국,"대구광역시 달서구 월배로 169, 1층 (진천동)",35.8172281,128.5324293
나은약국,"대구광역시 달서구 명덕로 6, 1층 (두류동)",35.8614932,128.5722895
조은안약국,"대구광역시 달서구 월배로 80, 401동 111호 (진천동, 진천역대성스카이렉스아파트)",35.815279,128.5297679
상인365심야약국,"대구광역시 달서구 상화북로 188, 1층 (상인동)",35.813024,128.5464145
더나은약국,"대구광역시 달서구 조암로 5, 1층 107호 (월성동)",35.821599,128.5207763
마을약국,"대구광역시 달서구 두류남길 78, 1층 (두류동)",35.8573456,128.5701635
더장수약국,"대구광역시 달서구 월배로 487-1, 1층 (송현동)",35.8366755,128.5562924
정담약국,대구광역시 달서구 월배로 62 (진천동),35.8130993,128.5214692
이룸약국,"대구광역시 달서구 와룡로 206, 1층 (죽전동)",35.8510425,128.5375312
계대동문약국,"대구광역시 달서구 계대동문로 2, 1층 (신당동)",35.8551908,128.4924573
새로운약국,"대구광역시 달서구 달구벌대로205길 11, 1층 (호산동)",35.8536177,128.4787134
대형약국,"대구광역시 달서구 달구벌대로205길 16, 1,2층 (호산동)",35.8540186,128.4787339
올약국,"대구광역시 달서구 장기로 193, 1층 (본리동)",35.8431634,128.5392376
강창역약국,"대구광역시 달서구 달구벌대로 지하1014, B2-1호, 강창역약국 (호산동)",35.853091,128.4780687
편안한약국,"대구광역시 달서구 달구벌대로205길 7, 1, 2층 (호산동)",35.8534159,128.4785009
월성사랑약국,"대구광역시 달서구 조암로 32, 신월성미소지움 116호 (월성동)",35.8252236,128.5264538
본리심야약국,"대구광역시 달서구 용산로 52, 1층 (장기동)",35.8421915,128.5308818
태극약국,"대구광역시 달서구 구마로12길 93, 월성주공5단지아파트 107호 (본동)",35.8329425,128.5342069
위드팜새동안약국,"대구광역시 달서구 달구벌대로203길 6, 1,2층 (101~103)호 (호산동)",35.8533086,128.4782766
동산약국,"대구광역시 달서구 야외음악당로39동길 32, 115동 103호 (두류동)",35.8549727,128.5553439
성서수약국,"대구광역시 달서구 달구벌대로 1015, 1, 2층 (호산동)",35.8531487,128.478258
상인역4번출구 무궁화약국,"대구광역시 달서구 월곡로 269, 1층 (상인동)",35.818169,128.5382673
본리사랑약국,"대구광역시 달서구 장기로 217, 1층 (본리동)",35.8399563,128.5382448
봄약국,대구광역시 달서구 구마로 218(송현동),35.8367868,128.5515265
현샘약국,"대구광역시 달서구 달구벌대로251길 33, 1층 (이곡동)",35.8550246,128.504652
해든약국,"대구광역시 달서구 달구벌대로 1726, 1층 103호 (두류동)",35.8585898,128.5625967
시민약국,"대구광역시 달서구 월배로 204, 성모여성병원 1층 (상인동)",35.8181299,128.536056
잘짓는약국,"대구광역시 달서구 달구벌대로 1653, 1층 103호 (감삼동)",35.8529993,128.5461891
포레약국,대구광역시 달서구 달구벌대로 1624(감삼동),35.8524625,128.5441205
초코약국,"대구광역시 달서구 진천로 77, 계룡리슈빌몰 301동 217호 (진천동, 진천역 계룡 리슈빌)",35.8155799,128.522037
부강약국,"대구광역시 달서구 계대동문로 106, 1층 (이곡동)",35.8549353,128.5037232
두류경북약국,"대구광역시 달서구 달구벌대로 지하1760, 대구지하철2호선 두류역 두류지하상가층 B열55, C열55호 (두류동)",35.8570894,128.5558608
도담시청약국,"대구광역시 달서구 달구벌대로 1664, 1층 (감삼동)",35.8539126,128.5479917
민트약국,"대구광역시 달서구 조암로 29, 월성동이래타워 106호 (월성동)",35.8245668,128.5270826
죽전약손약국,"대구광역시 달서구 장기로 225, 101호 (장기동)",35.8432852,128.5358081
새희망약국,"대구광역시 달서구 조암로 42, 플러스타워 1층 112호 (월성동)",35.8246527,128.5252476
건약국,대구광역시 달서구 상원로 128 (상인동),35.8197986,128.5309618
죽전하나약국,"대구광역시 달서구 달구벌대로 1565, 1층 (죽전동)",35.8508653,128.5376667
선한약국,대구광역시 달서구 조암남로32길 30 (대천동),35.8186278,128.5159051
본리선약국,"대구광역시 달서구 와룡로 138, 숭조빌딩 1층 101호 (감삼동)",35.8448944,128.5375135
천사약국,"대구광역시 달서구 월곡로 379, 1층 106호 (월성동)",35.8295391,128.5261392
성당수약국,"대구광역시 달서구 장기로 140, 1층 (성당동)",35.8437331,128.5451586
대광약국,"대구광역시 달서구 조암로 16, 도원빌딩 1층 104호 (월성동)",35.8257998,128.5279016
세계약국,"대구광역시 달서구 달구벌대로 1571, 1층 102호 (죽전동)",35.8511464,128.5385654
해봄약국,"대구광역시 달서구 송현로7길 26, 정원빌딩 101호 (상인동)",35.8204002,128.5464107
감삼시티약국,"대구광역시 달서구 달구벌대로 1666, 110호 (두류동)",35.8571096,128.5652107
더조은약국,"대구광역시 달서구 한실로 67, 1층 (도원동)",35.8072884,128.5342622
초이스약국,"대구광역시 달서구 한실로 69, 대한빌딩 103호 (도원동)",35.8072668,128.5344806
바로온누리약국,"대구광역시 달서구 월배로 473, 107호 (송현동)",35.8340868,128.5489314
서남중앙약국,"대구광역시 달서구 달구벌대로 1647, 1층 102호 (감삼동)",35.8526199,128.5445501
더편한약국,"대구광역시 달서구 월배로 93, 1층 (진천동)",35.8143865,128.5248838
시원약국,"대구광역시 달서구 송현로 42, 102호 (송현동)",35.8226287,128.5477682
월드약국,"대구광역시 달서구 와룡로 169, 101동 104호 (감삼동, 월드마크웨스트엔드)",35.8484374,128.536007
대학당약국,"대구광역시 달서구 감삼북길 63, 1층 (감삼동)",35.8522745,128.5452008
약손약국,"대구광역시 달서구 월배로 164, 스카이M타워 101호 (상인동)",35.8164881,128.5320615
다나은약국,"대구광역시 달서구 월배로 196, 1층 (상인동)",35.8178305,128.5352485
건강드림약국,"대구광역시 달서구 월배로 397, 안촌빌딩 1층 (송현동)",35.830172,128.5506139
센텀약국,"대구광역시 달서구 월배로 168, 아보스타워 101호 (상인동)",35.8166352,128.5323817
가가약국,"대구광역시 달서구 월배로 183, 지하 1층 (상인동, 상인 대성 스카이렉스)",35.8181693,128.5334098
모아약국,"대구광역시 달서구 도원로 36, 스포렉스 203호 (도원동)",35.8064448,128.5353843
메디칼중앙약국,"대구광역시 달서구 달구벌대로 1015, 1층 (호산동)",35.8531487,128.478258
성서약국,"대구광역시 달서구 달구벌대로 1158, 1층 (신당동)",35.850899,128.4939422
두류약국,"대구광역시 달서구 달구벌대로 1814, 1층 (두류동)",35.8595005,128.5633493
계명지하철약국,"대구광역시 달서구 달구벌대로 지하 1014, 대구지하철2호선 강창역 지하상가 1호 (호산동)",35.853091,128.4780687
참조은약국,대구광역시 달서구 이곡동로 31 (이곡동),35.8542492,128.5109757
은민약국,"대구광역시 달서구 월배로11길 32, 102호 (대천동)",35.8160572,128.5197039
중앙약국,"대구광역시 달서구 한실로 89, 1층 (도원동)",35.807052,128.5366563
참약국,"대구광역시 달서구 달구벌대로 1545, 골든뷰 메디타워 1층 108호 (죽전동)",35.850326,128.5360651
꿈나무약국,"대구광역시 달서구 한실로6길 98, 에스엔피빌딩 201호 (대곡동)",35.7989693,128.5294407
행복한약국,"대구광역시 달서구 와룡로41길 11, 1층 (죽전동)",35.8511512,128.5364305
대곡메디약국,"대구광역시 달서구 갈밭로 6, 대곡메디컬빌딩 105호 (대곡동)",35.8007682,128.5328754
준약국,대구광역시 달서구 명덕로 23 (두류동),35.8606773,128.5741252
평화온누리약국,"대구광역시 달서구 월배로 120, 서호메디칼타워 1층 102호 (진천동)",35.8152898,128.5285163
달구벌약국,"대구광역시 달서구 진천로 92, 이마트월배점 2층 (대천동)",35.817143,128.5236661
플러스약국,"대구광역시 달서구 조암로 149, 105호 (대천동)",35.8189341,128.5161092
오성약국,대구광역시 달서구 월곡로26길 33 (상인동),35.8087797,128.5505403
고은약국,대구광역시 달서구 조암남로 38 (월성동),35.8219343,128.528707
수한약국,"대구광역시 달서구 도원로 36, 1층 (도원동)",35.8064448,128.5353843
다온약국,"대구광역시 달서구 달서대로 65-25, 1층 (유천동)",35.8128619,128.5096707
가나약국,"대구광역시 달서구 월배로 175, 우리빌딩 102호 (상인동)",35.8175028,128.5327706
21세기약국,대구광역시 달서구 성지로 78 (용산동),35.8561362,128.521252
편한약국,"대구광역시 달서구 달구벌대로 1525, 101호 (죽전동, 진도골드타워)",35.8501117,128.5338942
킴스약국,대구광역시 달서구 월배로 400 (송현동),35.8261857,128.5569549
유안약국,대구광역시 달서구 월배로 18 (진천동),35.8113917,128.5177234
성서용산약국,대구광역시 달서구 성지로 68 (용산동),35.855293,128.5212237
정문약국,대구광역시 달서구 감삼북길 130 (감삼동),35.8512709,128.5417053
지혜약국,"대구광역시 달서구 도원로 30, 205호 (도원동, 대곡프라자)",35.8072101,128.5355456
연세에스약국,"대구광역시 달서구 야외음악당로 201, 102호 (두류동)",35.8536598,128.5569109
성보약국,대구광역시 달서구 야외음악당로39길 65 (두류동),35.8546256,128.5531416
성서종합약국,대구광역시 달서구 계대동문로 120 (이곡동),35.8549105,128.5055179
마루약국,"대구광역시 달서구 조암로 1, 112호 (월성동, 미래타워)",35.825673,128.5297384
송현한마음약국,"대구광역시 달서구 월배로 379, 1층 (송현동)",35.8287536,128.5493683
상인약국,"대구광역시 달서구 월곡로 260, 1층 (상인동, 상인프라자)",35.8177189,128.539452
황소약국,"대구광역시 달서구 성서로 420, 109호 (이곡동, 메가타운)",35.8548234,128.5077809
대성약국,대구광역시 달서구 월배로 130 (진천동),35.8148985,128.530295
송현동산약국,대구광역시 달서구 월배로 489 (송현동),35.8322292,128.5485406
수약국,"대구광역시 달서구 상인로 14, 103호 (상인동)",35.8095228,128.5515758
우리함께약국,"대구광역시 달서구 달구벌대로 1690, 1층 (두류동)",35.8550994,128.5507146
우리약국,"대구광역시 달서구 월배로 58, 1층 (진천동)",35.8130455,128.5210815
용산현대약국,"대구광역시 달서구 용산로 226, 1층 (용산동)",35.857743,128.5308048
혜안약국,"대구광역시 달서구 진천로 117, 119호 (대천동, 월배이타운)",35.8186984,128.5216293
올리브약국,대구광역시 달서구 비슬로 2720 (대곡동),35.8091836,128.5129834
참좋은약국,대구광역시 달서구 당산로 94 (성당동),35.8458368,128.5447384
새밝은약국,대구광역시 달서구 월배로 233 (상인동),35.8194795,128.5389039
만보약국,"대구광역시 달서구 월배로 113, 1층 (진천동)",35.8148367,128.5269644
빛에약국,"대구광역시 달서구 달구벌대로 1282, 1층 (이곡동)",35.8510993,128.5075904
연세약국,"대구광역시 달서구 야외음악당로 201, 101호 (두류동)",35.8536598,128.5569109
평화약국,"대구광역시 달서구 와룡로 218, 1층 (죽전동)",35.8520718,128.537683
애플약국,"대구광역시 달서구 진천로 93, 애플플라자 108호 (대천동)",35.8166038,128.5225442
은솔약국,"대구광역시 달서구 조암남로 158, 2층 (유천동)",35.8165352,128.5174092
바른약국,대구광역시 달서구 조암로 24 (월성동),35.8255051,128.5271709
건강한약국,"대구광역시 달서구 학산로7길 5 (월성동, 월성동서타운)",35.8287112,128.5317333
늘편한약국,대구광역시 달서구 학산로7길 67 (본동),35.8341746,128.5308937
유니약국,대구광역시 달서구 조암로 4 (월성동),35.8262217,128.5292076
손주약국,대구광역시 달서구 월배로 100 (진천동),35.8151387,128.528152
바오로약국,"대구광역시 달서구 조암로 28, 1층 (월성동)",35.8252471,128.5266813
수정약국,대구광역시 달서구 상화로 300-21 (도원동),35.8074235,128.5472705
대동한마음약국,대구광역시 달서구 상화북로 101 (상인동),35.8115428,128.5375864
다은약국,대구광역시 달서구 월배로 106 (진천동),35.8153651,128.5293576
태양약국,대구광역시 달서구 월배로 63 (진천동),35.8143172,128.5218129
장기참좋은약국,대구광역시 달서구 장기로 268 (장기동),35.8438328,128.5309551
성서까치약국,"대구광역시 달서구 이곡공원로 12, 1층 (이곡동)",35.8548693,128.5086489
보민약국,대구광역시 달서구 월배로 138 (진천동),35.8154103,128.5296338
현약국,대구광역시 달서구 월배로 141 (진천동),35.8160178,128.5297265
은약국,"대구광역시 달서구 상인서로 103-6, 리젠트프라자 702호 (상인동)",35.8184753,128.539842
서부약국,"대구광역시 달서구 구마로 262, 1층 (송현동)",35.8371718,128.5566137
연세중앙약국,"대구광역시 달서구 야외음악당로 199, 1층 (두류동)",35.8535481,128.5567902
신애약국,대구광역시 달서구 월배로 14 (진천동),35.8112036,128.5173584
햇살약국,대구광역시 달서구 용산로24길 87 (감삼동),35.8492432,128.5351144
진약국,"대구광역시 달서구 월배로11길 14, 104호 (진천동)",35.8154336,128.5285697
생약국,"대구광역시 달서구 월배로 137, 1층 (진천동)",35.8158444,128.5293654
초록약국,대구광역시 달서구 도원로 29 (도원동),35.807141,128.5362625
삼정약국,"대구광역시 달서구 달구벌대로 1530, 301동 313호 (감삼동, 삼정브리시티용산)",35.8446928,128.5404377
월드컵약국,대구광역시 달서구 월배로 432 (송현동),35.827,128.5532756
뉴현대약국,대구광역시 달서구 월배로 322 (송현동),35.8246972,128.5621443
옵티마참약국,"대구광역시 달서구 조암로 145, 106호 (대천동)",35.819295,128.5163982
성서효성약국,대구광역시 달서구 이곡동로 17 (이곡동),35.8541605,128.5093454
뽕뽕이약국,"대구광역시 달서구 장기로 167, 223동 101-3호 (본리동)",35.8429751,128.5418865
동이한방약국,대구광역시 달서구 월배로24길 54 (진천동),35.8157008,128.5295071
석주약국,대구광역시 달서구 성당로 195 (성당동),35.8505662,128.5720529
튼튼약국,"대구광역시 달서구 조암남로 42, 202호 (월성동)",35.8217518,128.5280645
연금약국,대구광역시 달서구 성서로 419 (이곡동),35.8548352,128.5066657
사랑플러스약국,"대구광역시 달서구 당산로 35, 사동 112호 (본리동, 달서종합상가)",35.8404107,128.5441454
새대한약국,대구광역시 달서구 성지로 70 (용산동),35.8554234,128.5212538
백세약국,"대구광역시 달서구 월배로 395, 1층 (송현동)",35.8299586,128.5504729
그린약국,대구광역시 달서구 구마로 224 (송현동),35.8367725,128.5523585
굿모닝옵티마약국,대구광역시 달서구 와룡로 201 (죽전동),35.8555229,128.537958
대곡강산약국,"대구광역시 달서구 한실로 65, 1층 (도원동)",35.8073109,128.5340451
미약국,대구광역시 달서구 당산로 89 (감삼동),35.8453981,128.5442344
토마토약국,대구광역시 달서구 달구벌대로 1562 (감삼동),35.8500976,128.5379848
송현우리약국,대구광역시 달서구 월배로 332 (송현동),35.8258304,128.5552235
다나약국,대구광역시 달서구 구마로 255 (성당동),35.837649,128.5556949
센트로약국,"대구광역시 달서구 월배로 219, 104호 (상인동, CENTRO TOWER)",35.8191009,128.53719
제일약국,"대구광역시 달서구 이곡공원로 32, B동 1층 (이곡동)",35.8548397,128.5109291
은빛약국,"대구광역시 달서구 송현로7길 10, 214호 (상인동, 상인화성파크드림상가)",35.8217218,128.5456222
광장약국,"대구광역시 달서구 달구벌대로 1762 (두류동,104호)",35.8582802,128.5630854
은성약국,"대구광역시 달서구 월배로 440, 1층 (송현동)",35.8327762,128.553916
새 동산약국,대구광역시 달서구 월성로 42 (월성동),35.831596,128.5308664
원더풀약국,"대구광역시 달서구 조암로 48, 1층 (월성동)",35.8243181,128.524199
정약국,대구광역시 달서구 송현로 40 (송현동),35.8224818,128.5480179
파티마약국,"대구광역시 달서구 학산로7길 39 (월성동,월성주공3단지 상가 110호)",35.832482,128.531153
삼광온누리약국,대구광역시 달서구 당산로 88 (성당동),35.8453174,128.5447361
성당대성약국,"대구광역시 달서구 당산로 39, 성당 래미안 이편한세상 상가 205호 (본리동)",35.8409704,128.5443582
마더스약국성서점,대구광역시 달서구 이곡동로 24 (이곡동),35.8536888,128.5101381
유창약국,대구광역시 달서구 성서서로 355-1 (신당동),35.8567896,128.4995486
송현 참조은약국,대구광역시 달서구 월배로 402 (송현동),35.8260728,128.5572374
원광한약국,대구광역시 달서구 월서로 20 (상인동),35.8208595,128.5325443
월성하나약국,대구광역시 달서구 조암남로 41 (월성동),35.8211952,128.5287614
화성약국,"대구광역시 달서구 월성로 77, 나동 114호 (월성동,월성주공2단지상가)",35.8294291,128.5289456
죽전해맑은약국,대구광역시 달서구 달구벌대로 1577 (죽전동),35.8513454,128.5389968
스마일약국,대구광역시 달서구 달구벌대로 1467 (용산동),35.8579641,128.5238973
싱싱약국,대구광역시 달서구 계대동문로 30 (신당동),35.8551466,128.4953529
이곡동산약국,"대구광역시 달서구 선원남로 113, 107호 (이곡동)",35.8573432,128.5125827
성안약국,"대구광역시 달서구 도원로 30, 109호 (도원동)",35.8072101,128.5355456
신약국,대구광역시 달서구 월배로 214 (상인동),35.8183525,128.5370606
연합약국,"대구광역시 달서구 월곡로 184, 106호 (상인동)",35.8126594,128.5450106
하나약국,대구광역시 달서구 월배로 218 (상인동),35.8184782,128.5374573
강산약국,대구광역시 달서구 송현로 103 (송현동),35.826246,128.5433893
대림온누리약국,"대구광역시 달서구 월배로 71, 101호 (진천동)",35.8151829,128.5282007
새화성약국,대구광역시 달서구 월배로 329 (송현동),35.8258304,128.5552235
하늘온누리약국,대구광역시 달서구 상화북로 209 (상인동),35.8146244,128.5480335
대우당약국,대구광역시 달서구 성서서로 341 (신당동),35.8555481,128.499533
원진약국,대구광역시 달서구 구마로 265 (성당동),35.8379394,128.5568855
그랜드엠약국,"대구광역시 달서구 용산로 141, 104호 (용산동)",35.850088,128.5300985
유공약국,"대구광역시 달서구 월곡로 86, C동 지1층 (도원동)",35.8056174,128.5509095
명가약국,"대구광역시 달서구 호산로 125 (파호동, 삼성명가타운)",35.8507618,128.4756261
대은약국,대구광역시 달서구 월배로 170 (상인동),35.8168448,128.5327174
서울약국,대구광역시 달서구 상원로 24 (상인동),35.812079,128.5368064
새경일온누리약국,"대구광역시 달서구 학산로 125, 2층 (본동)",35.833778,128.5402082
성서명가약국,대구광역시 달서구 이곡서로 73 (이곡동),35.8548076,128.504649
제중약국,대구광역시 달서구 월배로 152 (진천동),35.8160322,128.5309858
새인산약국,대구광역시 달서구 이곡공원로 24 (이곡동),35.8548513,128.5099224
장기우리약국,대구광역시 달서구 한들로 23 (장기동),35.8480737,128.5280329
태화약국,대구광역시 달서구 월배로 316 (송현동),35.8299683,128.5594308
대곡튼튼약국,대구광역시 달서구 도원로 20 (도원동),35.8079753,128.5357015
제이약국,대구광역시 달서구 장기로 265 (장기동),35.8433103,128.5312723
타워약국,대구광역시 달서구 달구벌대로 1744 (두류동),35.8541627,128.5614641
신세계약국,"대구광역시 달서구 상화북로 185, 106호 (상인동, 동창빌딩)",35.8133144,128.5458714
생명샘약국,대구광역시 달서구 도원로 19 (도원동),35.8079155,128.536309
미주온누리약국,대구광역시 달서구 이곡공원로 42 (이곡동),35.8549361,128.5120112
새종합약국,대구광역시 달서구 와룡로45길 46 (죽전동),35.8532164,128.5345444
배약국,대구광역시 달서구 성당로 287 (두류동),35.8580741,128.5739998
송현약국,대구광역시 달서구 구마로 228 (송현동),35.8368457,128.5526998
원약국,"대구광역시 달서구 구마로 217, 1층 (성당동)",35.8374376,128.5515125
주차장약국,대구광역시 달서구 진천로 56 (진천동),35.8136067,128.5246906
보람약국,대구광역시 달서구 와룡로 46 (본동),35.8365019,128.537297
해맑은약국,대구광역시 달서구 비슬로 2716 (대곡동),35.8089112,128.512478
장기참사랑약국,"대구광역시 달서구 한들로 36, 116동 104호 (장기동, 장기영남네오빌파크상가)",35.8470485,128.5277023
매가약국,"대구광역시 달서구 성서로 420, 113호 (이곡동, 성서메가타운)",35.8548234,128.5077809
이레약국,대구광역시 달서구 계대동문로 47 (신당동),35.8555687,128.4974924
명보약국,대구광역시 달서구 계대동문로 98 (신당동),35.8550474,128.5030435
미래약국,대구광역시 달서구 달구벌대로 1635 (감삼동),35.8536376,128.544832
성당종합약국,대구광역시 달서구 두류공원로28길 40 (성당동),35.8485347,128.568388
대건약국,대구광역시 달서구 월배로 92 (진천동),35.8150784,128.5280091
밝은온누리약국,"대구광역시 달서구 달구벌대로 1736, 1층 (두류동)",35.8567215,128.555191
송현경북약국,대구광역시 달서구 월배로 398 (송현동),35.8258304,128.5552235
홈플러스약국,대구광역시 달서구 신당로 63 (신당동),35.8536307,128.4993949
삼일약국,"대구광역시 달서구 와룡로 123, 1층 113호 (감삼동, 죽전역 동화아이위시)",35.8439488,128.5361683
강남약국,대구광역시 달서구 도원로 20 (도원동),35.8079753,128.5357015
드림시티약국,대구광역시 달서구 장기로 244 (장기동),35.8437526,128.5337288
건도약국,대구광역시 달서구 월성로 20 (월성동),35.8315401,128.5333501
명약국,"대구광역시 달서구 월곡로 320, 112동 1층 101호 (상인동)",35.8225524,128.5355313
삼선당약국,대구광역시 달서구 월배로 111 (진천동),35.815279,128.5297679
푸른약국,"대구광역시 달서구 송현로 113, 106호 (송현동, 본동주공1차아파트)",35.8280013,128.5432545
종합약국,대구광역시 달서구 달구벌대로 1643 (감삼동),35.8538431,128.5458644
크로바약국,"대구광역시 달서구 달구벌대로 1680 (두류동,(지1층))",35.8545574,128.5497887
새봄약국,대구광역시 달서구 달구벌대로 1542 (감삼동),35.849514,128.5356997
도연약국,대구광역시 달서구 호산로 143 (파호동),35.852364,128.477745
용산동산약국,대구광역시 달서구 용산로 225 (용산동),35.8577869,128.5302491
솔약국,대구광역시 달서구 상인로 7 (상인동),35.8088795,128.5516025
레미안약국,"대구광역시 달서구 화암로73길 24, 115동 108호 (대곡동, 삼성대리안아파트)",35.8070225,128.5180704
온누리류민정약국,대구광역시 달서구 장기로 205 (본리동),35.8432863,128.5378541
서동산약국,대구광역시 달서구 달구벌대로 1641 (감삼동),35.8536963,128.5454486
신진약국,대구광역시 달서구 이곡공원로 13 (이곡동),35.8554055,128.50882
다솜약국,대구광역시 달서구 용산서로 14 (용산동),35.8577591,128.5290414
메디칼약국,대구광역시 달서구 두류공원로28길 32 (성당동),35.8484622,128.5679165
영남제일약국,대구광역시 달서구 월배로 414 (송현동),35.8269405,128.5543762
늘푸른약국,"대구광역시 달서구 신당로 56, 104호 (신당동, 주공상가)",35.8524866,128.4978659
일진약국,대구광역시 달서구 달구벌대로 1348 (이곡동),35.860024,128.5130735
용산제일약국,대구광역시 달서구 용산로 232 (용산동),35.8582809,128.5309092
이화약국,대구광역시 달서구 성당로 209 (성당동),35.8511735,128.5730389
사랑약국,대구광역시 달서구 명덕로 17 (두류동),35.861034,128.5735659
건강약국,대구광역시 달서구 달구벌대로 1222 (이곡동),35.8531844,128.5053683
새롬약국,대구광역시 달서구 이곡공원로 46 (이곡동),35.8549297,128.5123459
새열린약국,대구광역시 달서구 당산로 43 (본리동),35.8424773,128.5392548
신성약국,"대구광역시 달서구 상인서로 3, 나동 113호 (상인동, 평광아파트)",35.8115862,128.5465003
희망약국,대구광역시 달서구 달구벌대로 1662 (감삼동),35.853871,128.5478207
용산경북약국,대구광역시 달서구 성지로 86 (용산동),35.8568126,128.5212624
한국약국,대구광역시 달서구 달구벌대로 1718 (두류동),35.8541627,128.5614641
혜율온누리약국,"대구광역시 달서구 호산로 125, 105호 (파호동, 삼성명가타운상가)",35.8511922,128.4775956
동성약국,대구광역시 달서구 감삼북길 138 (감삼동),35.8510481,128.5413137
"J,마트약국",대구광역시 달서구 이곡동로 25 (이곡동),35.8541449,128.510293
메디팜고려약국,"대구광역시 달서구 선원남로 99, 107호 (이곡동, 한빛상가)",35.8580657,128.5117776
열린약국,"대구광역시 달서구 월배로28안길 53, 105호 (진천동)",35.8130809,128.5284876
엘지약국,대구광역시 달서구 상화북로 105 (상인동),35.8115071,128.5379269
장기약국,대구광역시 달서구 달구벌대로 1352 (이곡동),35.8600133,128.5138705
성서조약국,대구광역시 달서구 달구벌대로 1607 (감삼동),35.8524499,128.5419921
보건약국,"대구광역시 달서구 월성로 36, 나동 105호 (월성동, 월성주공4단지)",35.8332447,128.5323967
엄마손약국,대구광역시 달서구 용산로 229 (용산동),35.8580238,128.5302502
새제일약국,대구광역시 달서구 월곡로26길 41 (상인동),35.8087431,128.5509229
월성강약국,대구광역시 달서구 학산로 16 (월성동),35.8269031,128.5317171
새화신약국,대구광역시 달서구 송현동2길 24 (송현동),35.8300165,128.5486132
은행약국,대구광역시 달서구 계대동문로 116 (이곡동),35.8549136,128.5051978
한약국,"대구광역시 달서구 월성로 36, 월성주공4단지 나동 115호 (월성동)",35.8332447,128.5323967
명승약국,대구광역시 달서구 달구벌대로 1714 (두류동),35.8541627,128.5614641
한미약국,대구광역시 달서구 야외음악당로39길 45 (두류동),35.8539913,128.5539904
동화약국,"대구광역시 달서구 상인서로 94, 208호 (상인동, 동화태왕한양상가)",35.8186368,128.5418942
영림약국,대구광역시 달서구 월배로 327 (송현동),35.8258304,128.5552235
대송약국,대구광역시 달서구 송현동길 48 (송현동),35.8308254,128.5483411
장수약국,대구광역시 달서구 구마로 176 (본동),35.8367842,128.5470586
대보당약국,대구광역시 달서구 상원로 121 (상인동),35.8192669,128.5308572
명문약국,대구광역시 달서구 구마로 124 (본동),35.8369831,128.5412468
세신약국,대구광역시 달서구 달구벌대로 1748 (두류동),35.8541627,128.5614641
삼원약국,대구광역시 달서구 대명천로 59 (성당동),35.8380627,128.5530362
합동약국,대구광역시 달서구 와룡로 19-1 (본동),35.8343181,128.5369082
베드로약국,대구광역시 달서구 장기로 136 (성당동),35.8437241,128.5455947
신당약국,대구광역시 달서구 달구벌대로 1218 (이곡동),35.8522304,128.5040718
명림약국,대구광역시 달서구 와룡로 110 (본리동),35.8424988,128.5375539
드림약국,"대구광역시 동구 아양로 162, 1층 (신암동)",35.88532064,128.6308569
은행약국,"대구광역시 동구 동촌로 229, 1층 (방촌동)",35.88162628,128.6656591
신천다정약국,"대구광역시 동구 장등로 56, 100,101호 (신천동, 벽산e-솔렌스힐)",35.87241238,128.6242318
자이약국,"대구광역시 동구 송라로10길 33, 상가 302동 2105호 (신천동, 동대구역 센트럴시티자이)",35.87348767,128.6237087
맑은샘약국,대구광역시 동구 신암남로 180(신암동),35.88480453,128.6330126
우리제일약국,"대구광역시 동구 국채보상로 791, 성암빌딩 1층 (신천동)",35.86820282,128.6173443
엘약국,"대구광역시 동구 안심로 368, 1층 (신서동)",35.86787289,128.7246088
새평화약국,대구광역시 동구 아양로15길 2(신암동),35.88349549,128.6231006
스마일약국,"대구광역시 동구 안심로 389, 비에스메디타워 106호 (신서동)",35.86920398,128.7265698
미소약국,"대구광역시 동구 효목로 41, 1층 (효목동)",35.87717229,128.6394414
각산약국,"대구광역시 동구 반야월로 61, 1층 (용계동)",35.87391365,128.6953618
망고약국,"대구광역시 동구 효목로 56, 1층 (효목동)",35.87804886,128.6406999
한빛약국,"대구광역시 동구 송라로 81, 1층 (신천동)",35.87424081,128.617513
방촌하나약국,"대구광역시 동구 동촌로 245, 1층 (방촌동)",35.88104152,128.6670829
만복약국,"대구광역시 동구 안심로16길 47, 5층 514호 (율하동)",35.86326046,128.6937405
탑온누리약국,"대구광역시 동구 팔공로 242-13, 1층 117,118호 (봉무동)",35.92091144,128.6431294
이안약국,"대구광역시 동구 송라로 142, 1층 (신암동)",35.87929934,128.6153485
동문약국,"대구광역시 동구 아양로 115, 1층 (신암동)",35.88465209,128.6260005
파티마미소약국,"대구광역시 동구 아양로 81, 호창메디타워 1층 101호 (신암동)",35.88335295,128.6227783
베스트약국,"대구광역시 동구 안심로22길 56, 느티타워 106호 (율하동)",35.86315576,128.6978032
건강한온누리약국,"대구광역시 동구 동화천로 390, GH메디컬타워 105호 (지묘동)",35.94282797,128.6301952
신세계약국,"대구광역시 동구 아양로 50, 1층 (신암동)",35.88199052,128.6195779
대경약국,"대구광역시 동구 동대구로 429, 지하1층 (신천동)",35.86856523,128.6256743
따뜻한약국,대구광역시 동구 팔공로 153 (불로동),35.91242453,128.6408003
다온약국,대구광역시 동구 금강로 3 (신서동),35.86750438,128.7244393
가온약국,"대구광역시 동구 메디밸리로 1, 1층 (대림동)",35.87271267,128.7495803
새혜민약국,대구광역시 동구 반야월로 371 (신서동),35.87193657,128.7292747
그랜드약국,"대구광역시 동구 동촌로 242, 다산빌딩 (방촌동)",35.88080335,128.6661506
영남약국,대구광역시 동구 국채보상로159길 8 (신천동),35.86845284,128.6160506
성심약국,"대구광역시 동구 아양로 109, 1층 (신암동)",35.88438454,128.6254556
미래약국,"대구광역시 동구 국채보상로 801, 1층 (신천동)",35.86814401,128.6182629
큰사랑약국,"대구광역시 동구 안심로22길 40, 105동 (율하동)",35.86341152,128.6956684
방촌경북약국,대구광역시 동구 동촌로 211 (방촌동),35.88250225,128.6637283
보광약국,대구광역시 동구 해동로 15 (지저동),35.89685524,128.6380935
새론약국,"대구광역시 동구 메디밸리로 19, 1층 103호 (대림동)",35.87426449,128.7493292
동방약국,"대구광역시 동구 해동로 7, 1층 (지저동)",35.89739542,128.6382086
보라약국,"대구광역시 동구 동부로 59, 송원빌딩 1층 103호 (신천동)",35.87516159,128.618982
율하푸른약국,"대구광역시 동구 율하동로8길 73, 1층 (율하동)",35.86435602,128.7021764
세종약국,"대구광역시 동구 율하동로 46, 1층 (율하동)",35.86358508,128.701461
강촌하늘약국,"대구광역시 동구 화랑로80길 11, 1층 (방촌동)",35.8754185,128.6684864
삼성약국,"대구광역시 동구 아양로 251, 1층 (신암동)",35.88763272,128.6401681
튼튼약국,"대구광역시 동구 아양로 202 (효목동, 현대빌딩)",35.88568538,128.6351794
강남새약국,"대구광역시 동구 신암로 115, 1층 (신암동)",35.88089416,128.6119275
백만약국,"대구광역시 동구 해동로 39, 1층 (지저동)",35.89446874,128.6377199
동대구신세계약국,"대구광역시 동구 동부로 149, 1층 1호 (신천동, 신세계동대구복합환승센터)",35.87793857,128.6291924
행복온누리약국,"대구광역시 동구 아양로 243-1, 1층 (신암동, 제생빌딩)",35.88730315,128.6394344
다봄약국,"대구광역시 동구 안심로 359, 1층 (각산동)",35.86806884,128.7235032
제일약국,대구광역시 동구 아양로 208-1 (효목동),35.88573581,128.6358665
새미래약국,대구광역시 동구 아양로 248 (효목동),35.88701072,128.6401853
주차장약국,대구광역시 동구 장등로 12 (신천동),35.86840109,128.624311
동부유일약국,"대구광역시 동구 화랑로 83 (효목동, 영남빌딩)",35.87254006,128.6359491
메디약국,"대구광역시 동구 팔공로 259, 103호 (봉무동, 프라임빌딩)",35.92204155,128.6408005
정든약국,"대구광역시 동구 신암로 120, 1층 (신암동)",35.88048581,128.6124671
다사랑약국,대구광역시 동구 경안로 791 (각산동),35.87288699,128.7136248
안심약국,대구광역시 동구 반야월로 373-1 (신서동),35.87195204,128.7296956
팜프라자약국,"대구광역시 동구 안심로 80, 지하1층 (율하동, 롯데쇼핑프라자)",35.86846342,128.6933319
백세약국,대구광역시 동구 동촌로 281 (방촌동),35.87979676,128.6704836
유림약국,대구광역시 동구 아양로 185 (신암동),35.88591972,128.6334756
엔젤약국,대구광역시 동구 경안로 848 (각산동),35.87783079,128.714367
더샵약국,"대구광역시 동구 팔공로51길 17, 1층 108호 (봉무동)",35.92286228,128.639012
조은약국,"대구광역시 동구 안심로22길 40-7, 1층 (율하동)",35.86351721,128.69454
류약국,"대구광역시 동구 이노밸리로 321, 110호 (신서동)",35.87814696,128.7321779
유일약국,"대구광역시 동구 동촌로 231, 1층 (방촌동)",35.8816253,128.6658363
해인당약국,"대구광역시 동구 아양로50길 114, 1층 (효목동)",35.88249289,128.6422864
늘푸른 약국,대구광역시 동구 해동로 6 (지저동),35.89746104,128.6377328
참행복한 약국,"대구광역시 동구 동부로22길 2, 103호 (신천동, 서한코보스카운티 )",35.87619389,128.6267311
광장약국,대구광역시 동구 이노밸리로 162 (각산동),35.87855785,128.7148719
명약국,대구광역시 동구 신암로18길 12-1 (신천동),35.87761332,128.6119355
진약국,"대구광역시 동구 신암로 80, 1층 (신암동)",35.87826592,128.6094487
새율하약국,대구광역시 동구 안심로 58 (율하동),35.86994068,128.6919274
고은약국,"대구광역시 동구 팔공로51길 15-5, 104호 (봉무동)",35.92246193,128.639718
이시아약국,"대구광역시 동구 팔공로51길 33, 이스트애플A동 1층 108호 (봉무동)",35.92284521,128.6371392
지묘제일약국,"대구광역시 동구 파계로6길 32, 1층 (지묘동, 노블하이츠 103호)",35.9403159,128.6399065
김약국,"대구광역시 동구 장등로 20, 2층 (신천동)",35.8690444,128.6236627
아침약국,대구광역시 동구 화랑로 109 (효목동),35.8732654,128.6385351
한국약국,"대구광역시 동구 동촌로 127 (검사동, 홈플러스동촌점 지하1층)",35.88616994,128.6556625
명성온누리약국,"대구광역시 동구 동호로 75, 상가102호 (신서동)",35.86635582,128.7250821
알파약국,"대구광역시 동구 국채보상로 771, 1층 (신천동)",35.86827639,128.6153073
더그린약국,"대구광역시 동구 팔공로 149, 1층 (불로동)",35.9120192,128.6407527
완쾌약국,"대구광역시 동구 아양로 200, 1층 (효목동, 성원빌딩)",35.88560561,128.634924
메트로약국,"대구광역시 동구 효신로 8-4, 지하1층 (효목동)",35.87273232,128.6353858
인성약국,"대구광역시 동구 금강로 17 (신서동,1층)",35.86651892,128.7249397
수자당한약국,"대구광역시 동구 아양로8길 19, 1층 (신암동)",35.88026,128.6195755
마더스약국,"대구광역시 동구 안심로 389-2, 1층 (신서동)",35.87084813,128.7274375
열린우리약국,"대구광역시 동구 아양로 56, 1층 (신암동)",35.8821132,128.6202545
조아약국,"대구광역시 동구 동부로 26, 309호 (신천동, 신천역센트럴리버파크)",35.87357663,128.6152155
맑은약국,"대구광역시 동구 반야월로28길 66, 1층 (신기동)",35.8699009,128.7034103
종합약국,"대구광역시 동구 동대구로 550 (신암동,동대구역사내)",35.87943697,128.6287724
꿀약국,"대구광역시 동구 효목로 39-1, 1층 (효목동)",35.87700988,128.6394734
율하약국,"대구광역시 동구 반야월로 108, 1층 (율하동)",35.8731102,128.7002273
양춘당약국,"대구광역시 동구 동촌로 228-1, 1층 (방촌동)",35.8812778,128.6651135
밝은미소약국,"대구광역시 동구 동부로 19, 1층 (신천동)",35.87426365,128.6148222
큰기린약국,"대구광역시 동구 동부로 26, 상가동 2층 209호 (신천동, 신천휴먼시아5단지)",35.87357663,128.6152155
행복한 미래약국,"대구광역시 동구 송라로11길 39 (신천동, 신천휴먼시아6단지아파트 상가103호)",35.87144226,128.6166275
신암플러스약국,"대구광역시 동구 아양로 69, 1층 (신암동)",35.88290852,128.6215787
약사랑약국,"대구광역시 동구 율하동로 75, 2동 1층 (율하동)",35.86621757,128.7013513
새사랑약국,"대구광역시 동구 율하동로 138, 1층 (신기동)",35.87187891,128.702708
소망약국,"대구광역시 동구 동촌로 41, 1층 (입석동)",35.89008951,128.647587
건강온누리약국,"대구광역시 동구 안심로22길 46, 1층 (율하동)",35.86332649,128.6963431
건강약국,"대구광역시 동구 동촌로 303, 1층 (방촌동)",35.87916142,128.6728814
율하수약국,"대구광역시 동구 안심로 106, 1층 103호 (율하동, 메디원타워)",35.86701372,128.6961983
강촌열린약국,"대구광역시 동구 화랑로80길 18, 1층 (방촌동)",35.87506879,128.6681623
평안약국,"대구광역시 동구 아양로 85, 1층 (신암동)",35.88335111,128.6231327
편한온누리약국,"대구광역시 동구 동부로 72, 1층 (신천동)",35.87501023,128.6203651
행복한약국,"대구광역시 동구 동호로 75, 3층 303호 (신서동)",35.86635582,128.7250821
새건강한약국,"대구광역시 동구 장등로 12, 지하1층 4호 (신천동)",35.86840109,128.624311
율하우리들약국,"대구광역시 동구 안심로 54, 1층 (율하동)",35.8702668,128.6916423
율하온누리 약국,"대구광역시 동구 안심로22길 60, 1층 104호 (율하동, 동흥메디칼센타)",35.86310741,128.6983675
수약국,"대구광역시 동구 신암로 100, 1층 (신암동)",35.87970026,128.610977
그린약국,"대구광역시 동구 아양로 198, 1층 (효목동)",35.88559765,128.6347246
보명당약국,"대구광역시 동구 동부로 21, 1층 (신천동)",35.87423514,128.6151099
새봄약국,"대구광역시 동구 아양로 40, 1층 (신암동)",35.88171667,128.6185015
서문약국,대구광역시 동구 동촌로 217 (방촌동),35.88225615,128.6642246
화산당 한약국,대구광역시 동구 공항로 204 (지저동),35.89880177,128.6364586
은진약국,"대구광역시 동구 동촌로 208, 1층 (방촌동)",35.88221716,128.6631279
농심약국,대구광역시 동구 동촌로 268 (방촌동),35.87973357,128.6688882
효성약국,대구광역시 동구 경안로 719 (서호동),35.86632754,128.7132669
정인약국,대구광역시 동구 팔공로 148 (불로동),35.91186278,128.6413498
반야월인제약국,대구광역시 동구 율하동로24길 39 (신기동),35.86974559,128.7068307
세계로약국,"대구광역시 동구 아양로 111, 1층 (신암동)",35.88440181,128.6255998
한마음약국,"대구광역시 동구 화랑로 111, 1층 (효목동)",35.87330038,128.6387347
신영약국,"대구광역시 동구 경안로 728, 1층 (동호동)",35.86712637,128.7138278
다나약국,"대구광역시 동구 팔공로101길 55, 104호 (지묘동, 팔공2차보성아파트상가)",35.94008648,128.642354
희망약국,대구광역시 동구 동촌로 238 (방촌동),35.88092193,128.6658969
참사랑약국,대구광역시 동구 동촌로 225 (방촌동),35.88186387,128.6650742
소원약국,"대구광역시 동구 아양로 81, 호창메디타워 1층 104호 (신암동)",35.88335295,128.6227783
정문약국,"대구광역시 동구 아양로 110, 1층 (신암동)",35.8840402,128.6258073
신암성모약국,대구광역시 동구 신암남로 183 (신암동),35.88531112,128.6326622
인애약국,대구광역시 동구 아양로 51-1 (신암동),35.88249444,128.6197369
예약국,"대구광역시 동구 아양로 51, 1층 (신암동)",35.88242302,128.6196035
신세계로약국,대구광역시 동구 동촌로 237 (방촌동),35.88131665,128.6662325
방촌약국,"대구광역시 동구 동촌로 228, 1층 (방촌동)",35.88135977,128.6649592
동호팔공약국,"대구광역시 동구 안심로 366, 1층 (신서동)",35.86778424,128.7243643
메디슨약국,"대구광역시 동구 아양로 199, 1층 (신암동)",35.88610266,128.6346732
정약국,대구광역시 동구 대현로 135-12 (신암동),35.88182005,128.6141719
파티마삼성약국,"대구광역시 동구 아양로15길 5, 1층 (신암동)",35.88346948,128.6229011
현약국,"대구광역시 동구 율하동로 115, 1층 (신기동)",35.8700079,128.7020714
현대온누리약국,"대구광역시 동구 동촌로 230, 1층 (방촌동)",35.88125903,128.6652463
하나로약국,"대구광역시 동구 아양로50길 113, 1층 (효목동)",35.8825721,128.6426414
동호우리약국,대구광역시 동구 금강로 2 (동호동),35.8673005,128.7238727
동원약국,대구광역시 동구 동호로 79 (신서동),35.86648813,128.7255595
연합약국,대구광역시 동구 동촌로 203 (방촌동),35.88280409,128.6629334
민들레약국,대구광역시 동구 아양로 61 (신암동),35.88284003,128.6208804
혜성약국,대구광역시 동구 아양로 48 (신암동),35.88187455,128.6193445
경화약국,대구광역시 동구 팔공로29길 4 (불로동),35.9117867,128.6404074
김정희약국,"대구광역시 동구 율하동로 137, 1층 (신기동)",35.87188935,128.7024645
대본약국,대구광역시 동구 동촌로 204 (방촌동),35.88236308,128.662819
한미약국,대구광역시 동구 송라로 30 (신천동),35.87006235,128.6202932
화생약국,대구광역시 동구 반야월로 227 (동호동),35.87223137,128.7132314
세경약국,대구광역시 동구 효서로 5 (효목동),35.87724575,128.6391873
한도약국,대구광역시 동구 동북로 407 (신암동),35.88645762,128.6323169
하나약국,대구광역시 동구 송라로 3 (신천동),35.868278,128.6184965
패밀리약국,"대구광역시 동구 아양로 187, 1층 (신암동)",35.88594612,128.6335976
신평화약국,대구광역시 동구 아양로 37 (신암동),35.88215956,128.6182613
아양약국,대구광역시 동구 아양로 236 (효목동),35.88649536,128.6387966
성도약국,대구광역시 동구 율하동로23길 21-1 (율하동),35.86999426,128.699779
권약국,대구광역시 동구 파계로6길 40 (지묘동),35.94090409,128.6394679
봉화약국,대구광역시 동구 동부로30길 63 (신천동),35.87141358,128.6290853
새인성약국,대구광역시 동구 반야월로 100 (율하동),35.87316088,128.6992643
누리약국,대구광역시 동구 팔공로 170 (불로동),35.91395386,128.6413445
대광약국,대구광역시 동구 아양로 111-1 (신암동),35.88448217,128.6257444
동화약국,대구광역시 동구 율하동로24길 7 (신기동),35.86989436,128.7029895
수정약국,"대구광역시 동구 효동로1길 66, 1층 (효목동)",35.87794172,128.6455498
명보약국,대구광역시 동구 효목로 21 (효목동),35.8751364,128.6392368
온누리원약국,대구광역시 동구 팔공로 137 (불로동),35.91109059,128.6408006
노약국,"대구광역시 동구 아양로9길 7, 2층 (신암동)",35.88279712,128.6187204
신구약국,대구광역시 동구 해동로 19 (지저동),35.89635995,128.638012
장응약국,대구광역시 동구 반야월로 228 (동호동),35.87190547,128.7134721
명인약국,대구광역시 동구 동촌로 45 (입석동),35.88993486,128.6478516
강남약국,대구광역시 동구 신암로 98 (신암동),35.87944897,128.6107646
행복약국,대구광역시 동구 동대구로85길 27 (신천동),35.87280813,128.6243899
대원약국,대구광역시 동구 안심로49길 110 (서호동),35.8707946,128.7108155
허약국,대구광역시 동구 동촌로 212 (방촌동),35.88210747,128.6634038
영생약국,대구광역시 동구 아양로8길 13 (신암동),35.88072964,128.6193909
새동보약국,대구광역시 동구 신암남로27길 81 (신암동),35.88382434,128.6308782
화신약국,대구광역시 동구 효신로 24 (효목동),35.874169,128.6347107
삼강약국,대구광역시 동구 신암남로 20 (신암동),35.87776192,128.6181052
보민약국,대구광역시 동구 동부로 8-1 (신천동),35.87380146,128.6135561
샘약국,"대구광역시 동구 동대구로 415, 1층 1호 (신천동)",35.8676,128.6263
이룸약국,"대구광역시 동구 안심로 358, 1층 (동호동)",35.86716,128.7178
조이약국,"대구광역시 동구 반야월로 229, 1층 101호 (동호동)",35.87229,128.7176
1층가까운약국,"대구광역시 동구 율하동로23길 2, 1층 (신기동)",35.87045,128.7017
화성약국,"대구광역시 동구 동대구로 590, 상가301동 103호 (신암동, 동대구역화성파크드림아파트)",35.87597,128.626
안심다온약국,"대구광역시 동구 반야월로 189, 1층 (율암동)",35.87494,128.711
신암송약국,"대구광역시 동구 아양로 70, 1층 (신암동)",35.88248,128.6216
나눔약국,"대구광역시 동구 안심로22길 60-1, 모인프라자 1층 114호 (율하동)",35.86298,128.6983
행운약국,"대구광역시 동구 안심로 356, 1층 (동호동)",35.867776,128.723434
키위약국,"대구광역시 동구 동대구로 525, 토요코인 호텔 동대구역점 101호 (신천동)",35.877395,128.62609
평화사랑약국,"대구광역시 동구 아양로 39, 우진빌딩 1층 (신암동)",35.882463,128.618641
다인약국,"대구광역시 동구 국채보상로 777, 1층 102호 (신천동)",35.868411,128.615814
레몬약국,"대구광역시 동구 아양로 49, 1층 (신암동)",35.882474,128.619324
동구시장심야약국,"대구광역시 동구 화랑로 123, 1층 115호 (효목동, 유림아파트)",35.873953,128.639823
사랑드림약국,"대구광역시 동구 화랑로 51, 301동 1층 102호 (신천동, 동대구비스타동원)",35.87094,128.63305
침산스마일약국,"대구광역시 북구 침산로 148, 엠브로스퀘어 112호 (침산동)",35.889483,128.5914643
365경북대야간약국,"대구광역시 북구 대학로 79, 1층 (산격동)",35.8925113765,128.6089498433
기쁨약국,"대구광역시 북구 중앙대로 528, 1층 (칠성동2가)",35.8800231709,128.596190323
복현 가까운약국,"대구광역시 북구 동북로 241, 301동 104-1호 (복현동, 복현아이파크)",35.8964411183,128.6188126715
장수약국,"대구광역시 북구 칠성시장로 14, 1층 (칠성동1가)",35.8755483462,128.604928288
해동약국,"대구광역시 북구 동북로 156, 1층 101호 (산격동)",35.8994832033,128.6096694371
메디컬진약국,"대구광역시 북구 공항로 3, 1층 (복현동)",35.8980919076,128.6157031181
연경진약국,"대구광역시 북구 연경지묘로 6, 1층 106호 (연경동)",35.9424862592,128.6151186004
도남약국,"대구광역시 북구 도남중앙로7길 6, 워너프라자Ⅲ 1층 107호 (국우동)",35.9519920358,128.5827742576
다정약국,"대구광역시 북구 도남중앙로7길 20-4, 도남지구 21B-1L 1층 (국우동)",35.9520509435,128.5821018735
365칠곡대구제일큰약국,"대구광역시 북구 칠곡중앙대로 244, 1,2층 (태전동)",35.9178421122,128.5484411103
이베약국,"대구광역시 북구 팔거천동로 210, 1층 (동천동)",35.9426949433,128.558445151
건강한약국,"대구광역시 북구 복현로 34-1, 1층 (복현동)",35.8950236454,128.6246240343
소담약국,"대구광역시 북구 학정로 440, 5층 (구암동)",35.9437658959,128.564253092
쉼표약국,"대구광역시 북구 동북로 244, 1층 101호 (복현동)",35.8952416871,128.6175114202
후문약국,대구광역시 북구 호국로 807-9(학정동),35.9567528249,128.56588144
이백세약국,"대구광역시 북구 칠곡중앙대로 411, 우영펠리스 2층 (태전동)",35.9325261941,128.5479956248
건중약국,"대구광역시 북구 연암로 170, 1층 (산격동)",35.8995788276,128.5964398607
오약국,"대구광역시 북구 칠곡중앙대로 332, B동 1층 (태전동)",35.9253331013,128.5475836142
정성약국,"대구광역시 북구 동북로 254, 1층 (복현동)",35.8945979703,128.618296485
바로약국,"대구광역시 북구 동북로 289, 1층 (복현동)",35.8928744992,128.6218731555
다원약국,"대구광역시 북구 학남로3길 41, 1층 (학정동)",35.9523939128,128.5675816376
검단약국,"대구광역시 북구 검단로 255, 상가2동 1층 102호 (검단동, 민들레아파트)",35.9163357579,128.6281405688
대학정문약국,"대구광역시 북구 칠곡중앙대로 434, 대구읍내 행복주택 판매,업무시설 1층 101호 (읍내동)",35.9343087314,128.5492001974
오거리약국,"대구광역시 북구 동북로 199, 1층 (산격동)",35.8982057134,128.6143035155
참조은약국,"대구광역시 북구 연암로 184, 1층 (산격동)",35.9009073667,128.5965286811
참대학약국,"대구광역시 북구 팔거천동로 388, B동 1층 (동호동)",35.9585721547,128.5609482471
연경약국,"대구광역시 북구 동화천로 241, 105호 (연경동)",35.9426488378,128.6173789969
새봄약국,"대구광역시 북구 동화천로 245, 1층 106호 (연경동)",35.9426550928,128.6179110381
연경동산약국,"대구광역시 북구 연경지묘로 2, 1층 109호 (연경동)",35.9421979695,128.6153274919
서변동산약국,"대구광역시 북구 호국로 219, 대성골든프라자1차 131,134호 (서변동)",35.9213719146,128.5988241133
문전약국,"대구광역시 북구 호국로 807-45, 1층 101호 (학정동)",35.9550713212,128.5653140263
샘결약국,"대구광역시 북구 동북로 160, 2층 (산격동)",35.8992939489,128.6100940045
칠성약국,"대구광역시 북구 칠성시장로 10, 102~104호 (칠성동1가)",35.8753237087,128.605095596
연약국,"대구광역시 북구 호국로 215, 대성골든프라자2차 202호 (서변동)",35.9208590757,128.5988175558
서변우리약국,"대구광역시 북구 호국로 215, 대성골든프라자2차 2층 205호 (서변동)",35.9208590757,128.5988175558
서약국,"대구광역시 북구 구암로 153, 동천빌딩 1층 (동천동)",35.9319453472,128.5575152208
나라약국,"대구광역시 북구 침산로 173, 1층 110호 (침산동)",35.8914839441,128.5896845799
에이플러스 약국,"대구광역시 북구 학정로 427, 2층 (동천동)",35.9427600718,128.5631723088
새민약국,"대구광역시 북구 동북로 162, 1층 (산격동)",35.8992356691,128.6103677175
칠곡별약국,"대구광역시 북구 팔거천동로 222, 동천 메디빌 빌딩 1층 101호 (동천동)",35.9436508541,128.5586406784
동서약국,"대구광역시 북구 호국로 215, 대성골든프라자2차 1층 (서변동)",35.9208590757,128.5988175558
안지약국,"대구광역시 북구 침산남로 176, 1층 (침산동)",35.8873685215,128.5947003761
정약국,"대구광역시 북구 구암로 136, 1층 (구암동)",35.9316084504,128.5556222251
강북동산약국,"대구광역시 북구 팔거천동로 223, 수정빌딩 103호 (동천동)",35.9439864431,128.5579185294
새강북약국,"대구광역시 북구 칠곡중앙대로 442, 1층 (읍내동)",35.9351565801,128.5491513232
침산미소약국,"대구광역시 북구 침산로 168, 1층 108,109호 (침산동)",35.8911916695,128.5906126401
대학당약국,"대구광역시 북구 학정로 551-50, 1층 (학정동)",35.9544860475,128.5648639112
다나은약국,"대구광역시 북구 내곡로 38-6, 2층 일부 (사수동)",35.8989380969,128.5106377381
독일약국,대구광역시 북구 팔달로 165 (노원동3가),35.8890194646,128.5680922753
진약국,"대구광역시 북구 동천로23길 30-23, 1층 106호 (동천동)",35.9439862305,128.557066998
대현사랑약국,"대구광역시 북구 대현남로6길 11, 1층 (대현동)",35.8810502998,128.6085824281
해민약국,"대구광역시 북구 대천로 88, 1층 (동천동)",35.9367415649,128.5587372449
태약국,"대구광역시 북구 학정로 439, 칠곡메가타운 3층 303호 (동천동)",35.9438791872,128.5633388606
금강약국,"대구광역시 북구 동변로 24, 225동 107호 (동변동, 유니버시아드선수촌)",35.9162331708,128.6025423193
참약국,"대구광역시 북구 학정로 429, 로데오프라자 1층 103호 (동천동)",35.9430755279,128.563237034
스마일약국,"대구광역시 북구 동암로12길 8, 칠곡홈플러스 1층 (동천동)",35.9448499077,128.5559672179
강북약국,"대구광역시 북구 칠곡중앙대로 450, 1층 101호 (읍내동)",35.9359091028,128.5494460192
국민약국,대구광역시 북구 칠성시장로7길 28 (칠성동1가),35.8760374434,128.6025763306
금약국,"대구광역시 북구 연암로 190, 1층 (산격동)",35.9013831117,128.5965057858
유정약국,"대구광역시 북구 학정동로 10, 나동 1층 103호 (국우동, 칠곡그린빌 5,6단지)",35.944039603,128.5670687254
수화약국,"대구광역시 북구 침산남로 140, 엠비프라자 1층 106호 (침산동)",35.8880877089,128.5909513134
칠곡대학약국,대구광역시 북구 구암로15길 26 (읍내동),35.9347128237,128.5497961932
화인탑약국,"대구광역시 북구 옥산로 95, 화인탑펠리스 109호 (칠성동2가)",35.8846338591,128.5859339152
세계로약국,"대구광역시 북구 칠곡중앙대로 400, 1층 (태전동)",35.9313375423,128.5485651203
수약국,"대구광역시 북구 태전로 1, 101동 102호 (태전동, 태전역 더 뉴클래스)",35.9203355973,128.5459503007
민들레약국,"대구광역시 북구 연암로22길 1, 1층 (산격동)",35.8942006638,128.5944720582
대구진약국,"대구광역시 북구 태평로 161, 롯데백화점 대구역 지하2층 (칠성동2가)",35.8758076636,128.5960385826
신라약국,"대구광역시 북구 칠곡중앙대로 205, 1층 (태전동)",35.9144535442,128.5481896162
보건정문약국,"대구광역시 북구 팔거천동로 209, 1층 (동천동)",35.9427562592,128.5576717478
메디팜원대약국,"대구광역시 북구 팔달로 217-1, 1층 (노원동2가)",35.8882513762,128.5740809089
효성약국,"대구광역시 북구 칠곡중앙대로 537, 1층 (읍내동)",35.9436492278,128.5504601868
칠곡동아약국,"대구광역시 북구 구암로15길 8, 1층 (읍내동)",35.9332331031,128.5495486895
아이맘약국,"대구광역시 북구 팔거천동로 217, 1층 (동천동)",35.9434399296,128.5578262383
정은약국,"대구광역시 북구 칠곡중앙대로 223, 1층 (태전동)",35.9158756391,128.5481825477
석약국,"대구광역시 북구 동북로 291, 106호 (복현동)",35.892778082,128.622159681
강남당약국,"대구광역시 북구 신암로 99, 1층 (대현동)",35.8799072403,128.6104757899
초록약국,"대구광역시 북구 학정로 416, 2층 (구암동)",35.9417953797,128.5638105507
신대학약국,"대구광역시 북구 대학로 91-1, 1층 (산격동)",35.8933664725,128.6098771546
팔달온누리약국,"대구광역시 북구 팔달로 163, 1층 (노원동3가)",35.8890786943,128.5678419496
튼튼약국,"대구광역시 북구 학정로106길 10, 1층 (학정동)",35.9517472408,128.566568628
희약국,"대구광역시 북구 한강로4길 9, 106호 (사수동)",35.8960791074,128.5145506569
침산열린약국,"대구광역시 북구 침산남로 138, 1층 (침산동)",35.888156592,128.5906901277
인덕약국,"대구광역시 북구 팔거천동로 36, 1층 (구암동)",35.9279618137,128.5526778381
들꽃약국,"대구광역시 북구 학정로 415, 2층 201호 (동천동, 메가타운)",35.9418455247,128.562984193
매천약국,"대구광역시 북구 매전로 78, 1층 (태전동)",35.9125856803,128.5468454108
동천맑은약국,"대구광역시 북구 팔거천동로 213, 1층 (동천동)",35.9429942775,128.5577390313
금빛약국,"대구광역시 북구 내곡로 38, 103호 (사수동)",35.8989885902,128.5098975173
한성약국,대구광역시 북구 칠곡중앙대로 461 (관음동),35.9370132425,128.5488058237
소은약국,대구광역시 북구 대현남로6길 29 (대현동),35.8801159379,128.61010664
열린약국,"대구광역시 북구 동북로 345, 401동 107호 (복현동, 복현푸르지오아파트)",35.8925890168,128.6273480083
푸른동변약국,"대구광역시 북구 동변로 91, 1층 (동변동)",35.9210140684,128.6031080715
즐거운약국,"대구광역시 북구 팔달로 149, 1층 (노원동3가)",35.8893677257,128.5664307069
손약국위드팜손약국,"대구광역시 북구 호국로 807-45, B동 1층 (학정동)",35.9550713212,128.5653140263
체리약국,"대구광역시 북구 복현로 50, 112동 2층 208-1호 (복현동, 복현블루밍브라운스톤 명문세가아파트)",35.8975296945,128.6247378287
오케이한샘약국,"대구광역시 북구 칠곡중앙대로 435, 1층 (관음동)",35.9346505204,128.5483256982
봄약국,"대구광역시 북구 칠곡중앙대로 519, 1층 (읍내동)",35.9421311067,128.5502418068
해뜨는 약국,"대구광역시 북구 동천로 121, 1층 (동천동)",35.9423577518,128.5603442305
칠곡푸른약국,"대구광역시 북구 칠곡중앙대로 427, 1층 (관음동)",35.9339151304,128.5483303021
편안약국,"대구광역시 북구 칠곡중앙대로 393, 3층 (태전동)",35.9308996288,128.5478144395
으뜸약국,"대구광역시 북구 대현남로 42, 1층 (대현동)",35.8817438784,128.6077164803
박약국,"대구광역시 북구 호암로 20, 126동 110호 (칠성동2가, 성광우방타운)",35.8826629401,128.5920247429
진성한약국,"대구광역시 북구 학정로 430, 센츄럴비즈니스빌딩 2층 204호 (구암동)",35.9430004425,128.5640547123
정약국,"대구광역시 북구  침산남로19길  2, 1층 (침산동)",35.8894265038,128.5869152149
힐링약국,"대구광역시 북구 한강로6길 14-1, 1층 103호 (사수동)",35.8960897857,128.5149757052
대도약국,"대구광역시 북구 산격로 24, 1층 (산격동)",35.8926725263,128.6054133375
바다약국,"대구광역시 북구 칠곡중앙대로 573, 1층 (읍내동)",35.9468321256,128.5509563613
강북조은약국,"대구광역시 북구 학정동로 45, 1층 (학정동)",35.9479212306,128.5671804085
팔공약국,"대구광역시 북구 구암로 137, 1층 (동천동)",35.932082935,128.5559184989
드림약국,"대구광역시 북구 동암로 90, C동 405호 (동천동, 세븐밸리)",35.9441378697,128.560322605
온누리참조은약국,"대구광역시 북구 관음중앙로 141-1, 1층 (읍내동)",35.9452969791,128.5479178081
건강약국,"대구광역시 북구  오봉로  136, 1층 (침산동)",35.899939193,128.5795634196
우리약국,"대구광역시 북구 신암로 27, 103호 (칠성동1가, 굿모닝메디타워)",35.8752590656,128.6054013225
한우리약국,"대구광역시 북구  침산로  144, 1층 (침산동)",35.8892590356,128.5915139494
하약국,"대구광역시 북구 검단로 114, 1층 (검단동)",35.9067674243,128.6201820686
희망약국,"대구광역시 북구 태전로1길 26, 1층 (태전동)",35.9201323617,128.5434454814
행복한약국,"대구광역시 북구 침산남로 155, 1층 (침산동)",35.8881682907,128.592832733
메디팜큰사랑약국,"대구광역시 북구 칠곡중앙대로 404, 1층 (태전동)",35.9317949523,128.5486077262
복현성모약국,"대구광역시 북구 동북로 268-1, 1층 (복현동)",35.8937107467,128.6196305345
노원건강한약국,"대구광역시 북구 팔달로 31, 1층 (노원동3가)",35.8917451068,128.5541849314
서울약국,"대구광역시 북구 학정로 436, 1층 (구암동)",35.9434732326,128.5641612178
보민약국,"대구광역시 북구 침산남로 50, 1층 (노원동1가)",35.8890655972,128.5815602118
이레약국,대구광역시 북구  복현로  88 (복현동),35.8993443834,128.622306642
새중앙약국,"대구광역시 북구 칠곡중앙대로 299, 1층 (태전동)",35.9222768822,128.5465135575
옵티마소망약국,"대구광역시 북구 팔달로 215-2, 1층 (노원동2가)",35.8881997492,128.5737296159
혜인약국,"대구광역시 북구 산격로 50, 1층 (산격동)",35.8951157834,128.6053997729
해오름약국,"대구광역시 북구 중앙대로 556, 1층 (침산동)",35.8822883958,128.5969339462
은혜온누리약국,"대구광역시 북구 학정로 419, 1층 (동천동)",35.9421118088,128.5630466183
동대구경북약국,"대구광역시 북구 대현로 96, 1층 (대현동)",35.8823226489,128.6095284498
가람대학약국,"대구광역시 북구 학정로109길 41, E동 1층 (학정동)",35.9544456523,128.5639672533
구주약국,대구광역시 북구 구암로15길 22 (읍내동),35.9344249549,128.5497787168
동산약국,대구광역시 북구 칠곡중앙대로 457 (관음동),35.9365955046,128.5487406064
국약국,대구광역시 북구 구암로 150 (구암동),35.9314836349,128.5571169195
해맑은약국,"대구광역시 북구 학정로 431, 1층 (동천동)",35.943311371,128.563263511
건강드림약국,대구광역시 북구 대천로 93 (동천동),35.9370997286,128.5594616534
경북정문약국,"대구광역시 북구 학정로 551-20, 1층 (학정동)",35.9544965778,128.565106732
홍익약국,대구광역시 북구 학정로 50 (태전동),35.9132329678,128.548076101
칠곡두산약국,대구광역시 북구 호국로 807-15 (학정동),35.9568052788,128.5661086918
라임약국,"대구광역시 북구 구암로65길 52, 1층 (구암동)",35.9417227732,128.5641820123
용약국,대구광역시 북구 동북로 168 (산격동),35.8990502141,128.6108447458
칠곡제일약국,대구광역시 북구 칠곡중앙대로 394 (태전동),35.9308803131,128.5484246821
박하약국,대구광역시 북구 대현로 88-1 (대현동),35.8824696416,128.6086327275
칠곡강남약국,"대구광역시 북구 칠곡중앙대로 385-1, 1층 (태전동)",35.9301720231,128.5476066883
메디팜일선약국,대구광역시 북구 동북로 288 (복현동),35.8925386374,128.6212532175
그린피스약국,"대구광역시 북구 대천로 87, 1층 (동천동)",35.9371805204,128.5588196638
칠곡종합약국,대구광역시 북구 구암로15길 29 (읍내동),35.9352426543,128.5495689693
송림약국,"대구광역시 북구 동북로 163, 201동 311호 (산격동, 산격대우아파트상가)",35.8989133854,128.6125190158
새복현약국,"대구광역시 북구 공항로 7, 1층 (복현동)",35.8981383431,128.6159287803
조은약국,대구광역시 북구 팔달로 225 (노원동2가),35.8880501157,128.5748258586
다나약국,대구광역시 북구 동북로 297 (복현동),35.8926843174,128.622603297
사랑약국,"대구광역시 북구 침산남로 23, 1층 (노원동1가)",35.8887598084,128.5787412031
우리들약국,대구광역시 북구 산격로8길 1 (산격동),35.8937758112,128.6053847843
칠곡사랑약국,대구광역시 북구 대천로 94 (동천동),35.9366551259,128.5593700338
건강한약국,대구광역시 북구 구암로 146 (구암동),35.9315375541,128.556433671
태전제일약국,대구광역시 북구 칠곡중앙대로 302 (태전동),35.9226086821,128.5471499625
무림약국,대구광역시 북구 원대로 76 (고성동3가),35.8842385241,128.5819374887
연합약국,대구광역시 북구 동북로 170 (산격동),35.8989722005,128.611004091
침산제일약국,대구광역시 북구 침산로 128 (침산동),35.8876629989,128.5918422385
다솔약국,대구광역시 북구 구암로 149 (동천동),35.9319792822,128.55713617
늘사랑약국,대구광역시 북구 공항로 10 (복현동),35.8976548369,128.6163205396
미소약국,대구광역시 북구 서변로 97 (서변동),35.9245770598,128.5965503008
수정약국,대구광역시 북구 고성로28길 2 (고성동2가),35.8812449351,128.5813552981
메이저 온누리약국,"대구광역시 북구 침산남로 154 (침산동, 103호)",35.8878456589,128.5922773355
하늘약국,대구광역시 북구 구리로34길 49 (국우동),35.9471212481,128.5771160125
다이온약국,대구광역시 북구 대현로 94 (대현동),35.8823386508,128.609262354
다우약국,대구광역시 북구 팔달로 143 (노원동3가),35.8893866404,128.5657266504
윤성약국,"대구광역시 북구 학정로 415 (동천동, 105호)",35.9418455247,128.562984193
종합약국,대구광역시 북구 연암로 172 (산격동),35.8997268157,128.5964450483
북구21세기약국,"대구광역시 북구 침산로 93, 319호,320호 (칠성동2가, 스펙트럼시티)",35.8852255663,128.589789906
약손약국,"대구광역시 북구 학정로 38, 1층 (태전동)",35.9132519622,128.5468752219
참사랑약국,"대구광역시 북구 연암로 135-2, 1층 (산격동)",35.8968078173,128.5949487537
손자경약국,"대구광역시 북구 동북로 163 (산격동, 대구A201/202)",35.8989133854,128.6125190158
편한약국,대구광역시 북구 원대로 42 (고성동2가),35.8811768909,128.5810205366
가람약국,대구광역시 북구 칠곡중앙대로 443 (관음동),35.9353617417,128.5485599648
동남약국,대구광역시 북구 검단로 112-1 (검단동),35.9066771986,128.6200568366
형우당약국,"대구광역시 북구 팔달로 189, 1층 (노원동2가)",35.8886096539,128.5707376524
신세계약국,"대구광역시 북구 구암로 135, 1층 (동천동)",35.9320992483,128.5557097359
신종합약국,"대구광역시 북구 영송로 85, 205,206호 (태전동, 한신상가)",35.9327968173,128.5426125619
온누리푸른약국,"대구광역시 북구 칠곡중앙대로 504-1, 1층 (읍내동)",35.9405909377,128.5505093664
유한약국,"대구광역시 북구 침산남로19길 10, 113호 (침산동, 현대그린상가)",35.8901255014,128.5870461101
온누리옥산약국,대구광역시 북구 호암로 30 (칠성동2가),35.8823350396,128.5938774736
산격현대약국,대구광역시 북구 동북로 172 (산격동),35.8989006616,128.6112315703
한솔약국,대구광역시 북구 칠곡중앙대로 428 (읍내동),35.9338591673,128.5489450604
칠곡우리약국,대구광역시 북구 동암로 6 (읍내동),35.9468212871,128.5521779651
세계약국,대구광역시 북구 동북로 198 (산격동),35.897889165,128.6138662577
정약국,"대구광역시 북구 칠성남로36길 6, 1층 (칠성동2가)",35.8764831957,128.5987256063
하나온누리약국,"대구광역시 북구 동북로 163, 201동 212호 (산격동, 대우아파트)",35.8989133854,128.6125190158
프라자약국,대구광역시 북구 칠성남로 226-2 (칠성동1가),35.8759389626,128.6049169029
건강백세약국,대구광역시 북구 동북로 146 (산격동),35.9001348731,128.6087776466
프라임약국,대구광역시 북구 침산로 138 (침산동),35.8888083987,128.5918724778
칠곡경북약국,대구광역시 북구 칠곡중앙대로 386-1 (태전동),35.9302128794,128.548337651
효민약국,"대구광역시 북구 태전로 3, 1층 (태전동)",35.9207172886,128.5458268922
메디팜녹색약국,대구광역시 북구 칠곡중앙대로 349 (태전동),35.9268728956,128.5472260656
한양온누리약국,"대구광역시 북구 구암로 17, 107호 (관음동, 한양수정아파트상가)",35.9366389327,128.54293422
유성약국,대구광역시 북구 동북로 311 (복현동),35.8921334808,128.6239810152
온누리낙원약국,대구광역시 북구 칠곡중앙대로 497 (관음동),35.9400696939,128.5496810515
동신약국,대구광역시 북구 침산남로7길 6-1 (노원동1가),35.8894914591,128.5796104356
메디팜보령약국,대구광역시 북구 관음중앙로28길 7 (관음동),35.9444531778,128.5471891138
동서당약국,"대구광역시 북구 경진로1길 42, 1층 (복현동)",35.8949370906,128.6171778491
현대약국,대구광역시 북구 대현로 99 (대현동),35.8825823681,128.6099041033
대일약국,대구광역시 북구 고성로 152 (고성동2가),35.8809754568,128.5823500527
대영약국,대구광역시 북구 칠성남로 49-9 (고성동2가),35.8798888615,128.5859021932
세운약국,대구광역시 북구 노원로 22 (노원동3가),35.8912766427,128.5654822461
인화약국,"대구광역시 북구  매전로  14, 1층 (매천동)",35.9084951856,128.5435775135
백약국,대구광역시 북구 팔달로 231 (노원동2가),35.8879485321,128.5753223969
한국약국,"대구광역시 북구 칠성시장로 26, 1층 (칠성동1가)",35.8765665474,128.6043008772
동대구약국,대구광역시 북구 대현로 91 (대현동),35.8828036241,128.6092096419
대양약국,"대구광역시 북구 태전로7길 2-1, 1층 (태전동)",35.9233600134,128.5440248224
산격약국,대구광역시 북구 연암로 98-2 (산격동),35.8932955952,128.5945846977
다사진약국,"대구광역시 달성군 다사읍 다사역로 60, 상가동 106호 (다사 e-편한세상)",35.86869819,128.4565055
호호약국,"대구광역시 달성군 현풍읍 테크노상업로2길 8-7, 102호",35.69130439,128.4542851
시온동산약국,"대구광역시 달성군 다사읍 다사역로 39, 101호",35.86558504,128.4574399
아빠곰약국,"대구광역시 달성군 현풍읍 테크노상업로 62, 118호",35.69319846,128.45634
설화약국,"대구광역시 달성군 화원읍 비슬로 2463, 102호",35.79811723,128.4878973
타워약국,"대구광역시 달성군 현풍읍 테크노상업로 52, 105호",35.69309236,128.4557979
나은약국,대구광역시 달성군 다사읍 매곡로12길 31,35.86501331,128.4560968
김하나약국,"대구광역시 달성군 다사읍 왕선로 12, 1층",35.86035932,128.4639536
정성약국,"대구광역시 달성군 구지면 과학마을로 50, 동일빌딩 1층 103호",35.6555863,128.4188295
해맑은약국,"대구광역시 달성군 유가읍 테크노상업로 110, 107호",35.6932326,128.4615554
요셉약국,대구광역시 달성군 다사읍 대실역북로 12,35.85780674,128.4667399
한솔약국,"대구광역시 달성군 현풍읍 현풍중앙로 28, 1층",35.69183706,128.4468521
새봄약국,"대구광역시 달성군 화원읍 비슬로 2593, 화원메디빌 104호",35.80455655,128.5001079
마음약국,"대구광역시 달성군 현풍읍 테크노상업로 46, 104호",35.69261863,128.4547456
광장약국,대구광역시 달성군 다사읍 달구벌대로 871,35.85854395,128.4649062
마디약국,대구광역시 달성군 현풍읍 현풍중앙로 66,35.695232,128.44528
미소약국,"대구광역시 달성군 다사읍 달구벌대로 863, 진광타워 108호",35.85895134,128.4644436
건강약국,대구광역시 달성군 현풍읍 비슬로122길 27-2,35.69358231,128.4453371
엠허브약국,대구광역시 달성군 현풍읍 테크노상업로 30,35.69171154,128.4538786
은행약국,대구광역시 달성군 다사읍 서재로20길 1,35.87167264,128.4972416
해오름약국,대구광역시 달성군 화원읍 비슬로 2490,35.79934025,128.4907925
인제약국,대구광역시 달성군 화원읍 비슬로 2574,35.80322087,128.4983513
경북대한약국,대구광역시 달성군 화원읍 비슬로 2545 (화원이진캐스빌),35.80391061,128.4950363
옥포바른약국,대구광역시 달성군 옥포읍 돌미상업로2길 1,35.78238504,128.4424154
동산온누리약국,대구광역시 달성군 화원읍 화암로 65,35.797797,128.495651
한사랑약국,"대구광역시 달성군 다사읍 달구벌대로 875, MA PLAZA",35.85821823,128.4652254
도담약국,"대구광역시 달성군 다사읍 세천남로 14, 2층",35.87316877,128.4773175
정다운약국,"대구광역시 달성군 다사읍 달구벌대로 874, 105호",35.8579514,128.4643049
논공우리약국,대구광역시 달성군 논공읍 논공로 758,35.72913246,128.4451265
다온약국,"대구광역시 달성군 구지면 과학마을로 42, 106호",35.65555317,128.4179899
테크노제일약국,"대구광역시 달성군 유가읍 테크노중앙대로 254, 하이젠스타 109,110호",35.69311911,128.45824
다정약국,대구광역시 달성군 다사읍 달구벌대로 873,35.85836309,128.4650602
연세약국,대구광역시 달성군 화원읍 비슬로 2527,35.80172525,128.4938499
세천푸른약국,대구광역시 달성군 다사읍 세천북로 5,35.87513733,128.4786582
바른손약국,대구광역시 달성군 구지면 과학마을로 46,35.65555217,128.4182771
동화약국,대구광역시 달성군 다사읍 서재로 31,35.86821036,128.493167
메가약국,"대구광역시 달성군 유가읍 테크노순환로12길 4, 111,112호",35.69339644,128.4704289
스마일약국,대구광역시 달성군 논공읍 논공로24길 6,35.72901847,128.4466955
엠스퀘어약국,"대구광역시 달성군 유가읍 테크노상업로 120, 321호 (테크노폴리스M스퀘어+)",35.69306516,128.4629024
화원동산약국,대구광역시 달성군 화원읍 비슬로 2585,35.80411776,128.4994192
명광온누리약국,대구광역시 달성군 가창면 가창로 1106,35.80322731,128.6223611
이레약국,대구광역시 달성군 가창면 가창로216길 61 (가창병원),35.80430271,128.6235534
명성약국,대구광역시 달성군 화원읍 비슬로 2606,35.80456801,128.5016792
오메가약국,대구광역시 달성군 다사읍 대실역남로 2,35.85712842,128.4650197
사랑모아약국,대구광역시 달성군 유가읍 테크노상업로 108,35.69324322,128.4611356
포산약국,대구광역시 달성군 유가읍 테크노상업로 112,35.69324922,128.4619201
우리온누리약국,대구광역시 달성군 화원읍 비슬로 2579-4,35.80391212,128.4990195
구지 봄약국,대구광역시 달성군 구지면 과학마을로 34,35.65554773,128.4169628
세천 현 약국,대구광역시 달성군 다사읍 세천로 161,35.87488488,128.4786789
중앙온누리약국,대구광역시 달성군 현풍읍 테크노상업로 20,35.69097353,128.4535871
비슬약국,대구광역시 달성군 유가읍 테크노상업로 98,35.69322918,128.4600969
수약국,대구광역시 달성군 옥포읍 돌미로 65,35.78066893,128.4409347
다나약국,대구광역시 달성군 다사읍 서재로7길 12,35.86871004,128.4922067
미르약국,대구광역시 달성군 옥포읍 돌미상업로1길 2,35.7822071,128.4417839
유가약국,대구광역시 달성군 유가읍 테크노상업로 100,35.69323663,128.4605057
동아약국,대구광역시 달성군 화원읍 비슬로 2717,35.80965198,128.5122343
은하약국,대구광역시 달성군 유가읍 비슬로64길 52-1,35.67294631,128.4488121
푸른약국,대구광역시 달성군 다사읍 서재로 117,35.87383637,128.4971111
유민약국,대구광역시 달성군 다사읍 달구벌대로 866-886,35.8607096,128.450104
효성약국,대구광역시 달성군 옥포읍 비슬로 2207,35.78885056,128.463127
하나로약국,대구광역시 달성군 화원읍 성천로 9 (달성하나로클럽),35.79929186,128.4871854
하리약국,대구광역시 달성군 현풍읍 현풍중앙로 62-1,35.69487974,128.4454769
죽곡탑약국,"대구광역시 달성군 다사읍 달구벌대로 878, 1층",35.8576077,128.4646129
튼튼약국,"대구광역시 달성군 다사읍 달구벌대로 881, 102호",35.85780152,128.4657655
중앙약국,대구광역시 달성군 논공읍 논공로 747,35.72908317,128.4462648
세명약국,대구광역시 달성군 논공읍 남리길 1,35.72705652,128.4483095
그린빌하나약국,대구광역시 달성군 화원읍 성암로1길 9,35.80190272,128.5095954
뉴한솔약국,대구광역시 달성군 다사읍 달구벌대로 893,35.85715853,128.4665478
홍익대학약국,대구광역시 달성군 화원읍 비슬로 2578,35.80337221,128.4988059
한일약국,대구광역시 달성군 현풍읍 현풍중앙로 42,35.69336275,128.4462087
대우약국,대구광역시 달성군 논공읍 논공로 210,35.7211404,128.4539686
연합약국,대구광역시 달성군 논공읍 논공로 760,35.72909702,128.4449605
행운약국,대구광역시 달성군 다사읍 달구벌대로 877,35.85808239,128.4653907
죽곡우리약국,대구광역시 달성군 다사읍 달구벌대로 864,35.85862957,128.4637442
수온누리약국,대구광역시 달성군 다사읍 서재로 134,35.87551224,128.4972545
행복한약국,대구광역시 달성군 현풍읍 비슬로130길 97,35.69525298,128.4444845
뉴그린빌동산약국,대구광역시 달성군 화원읍 성암로1길 19,35.80199215,128.509762
정이있는정약국,대구광역시 달성군 화원읍 비슬로 2571,35.80367272,128.4980665
태평온누리약국,대구광역시 달성군 화원읍 비슬로 2723,35.80982129,128.5126891
공단 약국,대구광역시 달성군 논공읍 논공로 756,35.72918597,128.4452815
장수약국,대구광역시 달성군 현풍읍 현풍로10길 24,35.69454399,128.4436519
참약국,대구광역시 달성군 논공읍 논공로9길 56,35.73069624,128.4414873
한빛약국,대구광역시 달성군 다사읍 서재로 120,35.87438409,128.4976129
명곡하나약국,대구광역시 달성군 화원읍 화암로 69,35.79792149,128.4960612
화원약국,대구광역시 달성군 화원읍 비슬로 2582,35.80355932,128.4993271
옥포우리약국,대구광역시 달성군 옥포읍 비슬로 2200-1,35.78812279,128.4625254
신세계약국,대구광역시 달성군 화원읍 명곡로 14,35.79844402,128.4961197
대실역동산약국,대구광역시 달성군 다사읍 달구벌대로 889,35.85737592,128.4662723
명곡서약국,"대구광역시 달성군 화원읍 명곡로 10, 106호, 204호 (명곡미래빌2단지 상가)",35.79697849,128.4952366
한영약국,대구광역시 달성군 화원읍 사문진로 441,35.80404676,128.4969845
삼성옵티마약국,대구광역시 달성군 다사읍 달구벌대로 805,35.86272001,128.4594829
온누리성주약국,대구광역시 달성군 다사읍 달구벌대로 800-2,35.86211902,128.4587265
논공약국,대구광역시 달성군 논공읍 비슬로 1787,35.77438612,128.4210021
무광온누리약국,대구광역시 달성군 현풍읍 현풍로 48,35.69546877,128.4446294
신광약국,대구광역시 달성군 화원읍 비슬로512길 59,35.80157712,128.4991487
시장약국,대구광역시 달성군 현풍읍 현풍로8길 19,35.69444733,128.4429773
