주소,지점명,전화번호,위도,경도,카테고리
부산강서구명지국제8로251,BNK부산은행명지국제신도시지점,051-271-8091,35.098342416850286,128.9204778487742,"금융,보험>금융서비스>은행>BNK부산은행"
부산강서구미음산단로127번길21,BNK부산은행강서산단지점,051-971-4848,35.13741553727802,128.85794540173453,"금융,보험>금융서비스>은행>BNK부산은행"
부산강서구유통단지1로41,BNK부산은행서부산유통단지지점,051-796-0021,35.167314045884495,128.95573569753859,"금융,보험>금융서비스>은행>BNK부산은행"
부산금정구구서로23,BNK부산은행구서동금융센터,051-514-2103,35.246609306242235,129.0885237024635,"금융,보험>금융서비스>은행>BNK부산은행"
부산금정구금정로75,BNK부산은행장전동지점,051-512-1012,35.23137476511389,129.08642078583543,"금융,보험>금융서비스>은행>BNK부산은행"
부산금정구서동로173,BNK부산은행금사공단지점,051-531-8311,35.21470974818131,129.10562413410375,"금융,보험>금융서비스>은행>BNK부산은행"
부산기장군기장읍읍내로98,BNK부산은행기장지점,051-722-6085,35.244922699849496,129.21505432328837,"금융,보험>금융서비스>은행>BNK부산은행"
부산기장군일광읍해빛로17,BNK부산은행일광지점,051-721-0121,35.26630134115025,129.2260203824592,"금융,보험>금융서비스>은행>BNK부산은행"
부산남구문현금융로30,BNK부산은행본점,051-642-3300,35.1454371730607,129.066130331507,"금융,보험>금융서비스>은행>BNK부산은행"
부산남구수영로234,BNK부산은행대연동금융센터,051-627-3117,35.13488569030775,129.09221112365003,"금융,보험>금융서비스>은행>BNK부산은행"
부산남구수영로27,BNK부산은행문현동지점,051-645-9651,35.137222280399456,129.07087353817278,"금융,보험>금융서비스>은행>BNK부산은행"
부산남구용호로141,BNK부산은행용호동지점,051-623-1691,35.11938053685373,129.1122473893957,"금융,보험>금융서비스>은행>BNK부산은행"
부산동구범일로92,BNK부산은행범일동지점,051-663-1010,35.138193569728756,129.05983671518328,"금융,보험>금융서비스>은행>BNK부산은행"
부산동구중앙대로251번길29,BNK부산은행초량동지점,051-468-3391,35.119728915576964,129.04016896217829,"금융,보험>금융서비스>은행>BNK부산은행"
부산동래구금강공원로13-1,BNK부산은행온천동지점,051-555-1461,35.21843695864385,129.08276002123512,"금융,보험>금융서비스>은행>BNK부산은행"
부산동래구아시아드대로189,BNK부산은행사직동금융센터,051-502-9005,35.20131694413123,129.06476858477066,"금융,보험>금융서비스>은행>BNK부산은행"
부산동래구충렬대로212,BNK부산은행수안동지점,051-554-4914,35.2020712429038,129.0824407454808,"금융,보험>금융서비스>은행>BNK부산은행"
부산부산진구새싹로1,BNK부산은행부전동금융센터,051-803-0851,35.1582495465406,129.05842428059228,"금융,보험>금융서비스>은행>BNK부산은행"
부산부산진구전포대로200,BNK부산은행전포역지점,051-802-1236,35.154323160264994,129.06578228616587,"금융,보험>금융서비스>은행>BNK부산은행"
부산부산진구중앙대로618,BNK부산은행범내골금융센터,051-646-8357,35.147851866016765,129.05959411648666,"금융,보험>금융서비스>은행>BNK부산은행"
부산부산진구중앙대로691번길32,BNK부산은행서면롯데1번가지점,051-806-2641,35.1546720575553,129.05725003672632,"금융,보험>금융서비스>은행>BNK부산은행"
부산북구백양대로1200,BNK부산은행구포지점,051-332-4201,35.20936159543871,129.00571091371165,"금융,보험>금융서비스>은행>BNK부산은행"
부산북구화명신도시로120,BNK부산은행화명동금융센터,051-361-2378,35.23459046041195,129.01114715098382,"금융,보험>금융서비스>은행>BNK부산은행"
부산사상구사상로448,BNK부산은행모라동지점,051-304-0082,35.1843912367878,128.98690519545164,"금융,보험>금융서비스>은행>BNK부산은행"
부산사상구사상로5,BNK부산은행사상금융센터,051-314-5011,35.15048119055413,128.99877504918436,"금융,보험>금융서비스>은행>BNK부산은행"
부산사상구새벽로160,BNK부산은행감전동금융센터,051-312-5301,35.15523979134084,128.9834022155722,"금융,보험>금융서비스>은행>BNK부산은행"
부산사하구낙동대로225,BNK부산은행괴정동지점,051-206-7571,35.09957659195479,128.99235675848783,"금융,보험>금융서비스>은행>BNK부산은행"
부산사하구하신중앙로348,BNK부산은행하단동금융센터,051-205-3262,35.10561260303043,128.968152151644,"금융,보험>금융서비스>은행>BNK부산은행"
부산서구구덕로325,BNK부산은행대신동지점,051-248-6501,35.112801197240735,129.01612640966297,"금융,보험>금융서비스>은행>BNK부산은행"
부산수영구과정로43,BNK부산은행망미동지점,051-754-3000,35.175163923120756,129.10727158807765,"금융,보험>금융서비스>은행>BNK부산은행"
부산수영구광남로33,BNK부산은행광남지점,051-625-2201,35.14583222027523,129.11084746755972,"금융,보험>금융서비스>은행>BNK부산은행"
부산수영구광안해변로293,BNK부산은행민락동지점,051-751-4961,35.15655174085585,129.1254624989242,"금융,보험>금융서비스>은행>BNK부산은행"
부산수영구수영로618번길4,BNK부산은행광안동지점,051-752-4161,35.160547341877134,129.11403907797083,"금융,보험>금융서비스>은행>BNK부산은행"
부산수영구수영로693,BNK부산은행수영금융센터,051-752-0166,35.16790266818837,129.11547618204915,"금융,보험>금융서비스>은행>BNK부산은행"
부산연제구거제대로166,BNK부산은행거제동지점,051-863-0122,35.183192198566815,129.07061254018785,"금융,보험>금융서비스>은행>BNK부산은행"
부산연제구중앙대로1001,BNK부산은행부산시청지점,051-852-0066,35.1792861474813,129.07595308526467,"금융,보험>금융서비스>은행>BNK부산은행"
부산연제구중앙대로1073,BNK부산은행연산동금융센터,051-865-1601,35.18405602159615,129.07962533024943,"금융,보험>금융서비스>은행>BNK부산은행"
부산중구광복중앙로13,BNK부산은행신창동지점,051-245-9382,35.10060127716647,129.03090224144688,"금융,보험>금융서비스>은행>BNK부산은행"
부산중구대청로56,BNK부산은행부평동금융센터,051-241-3561,35.10281594433345,129.02608183691984,"금융,보험>금융서비스>은행>BNK부산은행"
부산중구중앙대로96,BNK부산은행중앙동금융센터,051-469-0181,35.10627538834677,129.03657547117953,"금융,보험>금융서비스>은행>BNK부산은행"
부산해운대구선수촌로21번길7,BNK부산은행반여동지점,051-526-7071,35.19596651668083,129.11808764807725,"금융,보험>금융서비스>은행>BNK부산은행"
부산해운대구세실로43,BNK부산은행장산지점,051-702-1824,35.16875949716109,129.17845460451449,"금융,보험>금융서비스>은행>BNK부산은행"
부산해운대구센텀중앙로78,BNK부산은행센텀금융센터,051-744-8131,35.17461972893053,129.12700403505033,"금융,보험>금융서비스>은행>BNK부산은행"
부산해운대구재반로107,BNK부산은행재송동지점,051-782-1161,35.188079673513585,129.12605631500765,"금융,보험>금융서비스>은행>BNK부산은행"
부산해운대구재반로213,BNK부산은행반여2동영업소,051-784-0035,35.196232523787636,129.13065783359392,"금융,보험>금융서비스>은행>BNK부산은행"
