주소,지점명,전화번호,위도,경도,카테고리
부산강서구녹산산단335로24-12,KB국민은행녹산공단(점),1588-9999,35.0905766960749,128.85533172729146,"금융,보험>금융서비스>은행>KB국민은행"
부산강서구명지국제8로260,KB국민은행명지국제신도시종합금융센터,1588-9999,35.09760631465645,128.9211491989967,"금융,보험>금융서비스>은행>KB국민은행"
부산금정구중앙대로1919,KB국민은행두실역,1588-9999,35.25569900187843,129.0909838396374,"금융,보험>금융서비스>은행>KB국민은행"
부산기장군기장읍차성동로63,KB국민은행기장(점),1588-9999,35.243411685868395,129.21627529597728,"금융,보험>금융서비스>은행>KB국민은행"
부산기장군정관읍정관로563,KB국민은행정관신도시,1588-9999,35.32191457855474,129.1756343330029,"금융,보험>금융서비스>은행>KB국민은행"
부산남구문현금융로40,KB국민은행부산국제금융센터(점),1588-9999,35.14634085353882,129.0651372223441,"금융,보험>금융서비스>은행>KB국민은행"
부산남구분포로113,KB국민은행메트로시티,1588-9999,35.12728401077069,129.1088142709541,"금융,보험>금융서비스>은행>KB국민은행"
부산남구수영로225,KB국민은행대연동종합금융센터,1588-9999,35.135303509212775,129.09113360046928,"금융,보험>금융서비스>은행>KB국민은행"
부산동구범일로102번길8,KB국민은행범일동종합금융센터,1588-9999,35.138851026316075,129.06038973967406,"금융,보험>금융서비스>은행>KB국민은행"
부산동구중앙대로221,KB국민은행부산역,1588-9999,35.11706596887205,129.04038222098274,"금융,보험>금융서비스>은행>KB국민은행"
부산동래구동래로84,KB국민은행명륜동,1588-9999,35.20773739298348,129.08167195321334,"금융,보험>금융서비스>은행>KB국민은행"
부산동래구사직북로16,KB국민은행사직동,1588-9999,35.19730450695713,129.06077847374442,"금융,보험>금융서비스>은행>KB국민은행"
부산동래구아시아드대로239-1,KB국민은행미남(점),1588-9999,35.20545438623475,129.06744693245471,"금융,보험>금융서비스>은행>KB국민은행"
부산동래구온천장로125번길7,KB국민은행동부산종합금융센터,1588-9999,35.22204046839529,129.08460259460043,"금융,보험>금융서비스>은행>KB국민은행"
부산부산진구가야대로578,KB국민은행가야(점),1588-9999,35.15408256005946,129.03522972798797,"금융,보험>금융서비스>은행>KB국민은행"
부산부산진구당감로15,KB국민은행당감동,1588-9999,35.16300376522042,129.03953537718232,"금융,보험>금융서비스>은행>KB국민은행"
부산부산진구복지로2,KB국민은행개금동,1588-9999,35.15271340776618,129.02006685177568,"금융,보험>금융서비스>은행>KB국민은행"
부산부산진구새싹로11,KB국민은행중부산종합금융센터,1588-9999,35.15894862594109,129.05780106480293,"금융,보험>금융서비스>은행>KB국민은행"
부산부산진구새싹로2,KB국민은행서면중앙,1588-9999,35.15856535367469,129.0590368589769,"금융,보험>금융서비스>은행>KB국민은행"
부산부산진구중앙대로955,KB국민은행부산상수도본부(점),1588-9999,35.17516465713555,129.07235261880032,"금융,보험>금융서비스>은행>KB국민은행"
부산북구금곡대로616번길55,KB국민은행금곡동(점),1588-9999,35.263019954452936,129.01625224897356,"금융,보험>금융서비스>은행>KB국민은행"
부산북구만덕대로24,국민은행덕천동지점,1588-9999,35.2105194376805,129.007839921531,"금융,보험>금융서비스>은행>KB국민은행"
부산북구화명대로35,KB국민은행화명동,1588-9999,35.23515581500684,129.01199476331726,"금융,보험>금융서비스>은행>KB국민은행"
부산사상구괘감로37,KB국민은행사상종합금융센터,1588-9999,35.15976341214688,128.98044607217346,"금융,보험>금융서비스>은행>KB국민은행"
부산사상구낙동대로751,KB국민은행엄궁동,1588-9999,35.12844428738821,128.9694726644675,"금융,보험>금융서비스>은행>KB국민은행"
부산사하구낙동대로388,KB국민은행당리동,1588-9999,35.10298391240632,128.9761225317812,"금융,보험>금융서비스>은행>KB국민은행"
부산사하구사하로195,KB국민은행괴정역,1588-9999,35.09902178834479,128.9932687254965,"금융,보험>금융서비스>은행>KB국민은행"
부산사하구장림번영로13,KB국민은행서부산종합금융센터,1588-9999,35.081645795147345,128.96713542015567,"금융,보험>금융서비스>은행>KB국민은행"
부산서구구덕로300-1,KB국민은행동대신동(점),1588-9999,35.11083649076916,129.01775921144477,"금융,보험>금융서비스>은행>KB국민은행"
부산서구보수대로15,KB국민은행자갈치역,1588-9999,35.09831731193693,129.02446168978247,"금융,보험>금융서비스>은행>KB국민은행"
부산수영구광안로4,KB국민은행광안동,1588-9999,35.156929116133895,129.1133737459456,"금융,보험>금융서비스>은행>KB국민은행"
부산수영구남천동로104,KB국민은행남천동,1588-9999,35.14550756085825,129.11199874218525,"금융,보험>금융서비스>은행>KB국민은행"
부산연제구과정로190,KB국민은행토곡,1588-9999,35.18822392576048,129.10646395566906,"금융,보험>금융서비스>은행>KB국민은행"
부산연제구중앙대로1001,KB국민은행부산시청,1588-9999,35.1792861474813,129.07595308526467,"금융,보험>금융서비스>은행>KB국민은행"
부산연제구중앙대로1089,KB국민은행연산동종합금융센터,1588-9999,35.18516702285229,129.08052409497037,"금융,보험>금융서비스>은행>KB국민은행"
부산영도구태종로110,KB국민은행영도,1588-9999,35.090769931880885,129.04267171539126,"금융,보험>금융서비스>은행>KB국민은행"
부산중구광복로45,KB국민은행광복동,1588-9999,35.099449485780326,129.02999315512068,"금융,보험>금융서비스>은행>KB국민은행"
부산중구중앙대로49,KB국민은행부산종합금융센터,1588-9999,35.10215822391545,129.03612870346944,"금융,보험>금융서비스>은행>KB국민은행"
부산해운대구마린시티3로1,KB국민은행마린시티,1588-9999,35.15785985372148,129.14754867733953,"금융,보험>금융서비스>은행>KB국민은행"
부산해운대구마린시티3로51,KB국민은행해운대PB센터,1588-9999,35.15432218579224,129.14570557869646,"금융,보험>금융서비스>은행>KB국민은행"
부산해운대구선수촌로102-2,KB국민은행반여동(점),1588-9999,35.20276762850716,129.11962239088018,"금융,보험>금융서비스>은행>KB국민은행"
부산해운대구세실로45,KB국민은행장산역,1588-9999,35.16899229491425,129.17828742315757,"금융,보험>금융서비스>은행>KB국민은행"
부산해운대구센텀동로25,KB국민은행센텀시티종합금융센터,1588-9999,35.17172019052984,129.13185175051166,"금융,보험>금융서비스>은행>KB국민은행"
부산해운대구해운대로632,KB국민은행해운대,1588-9999,35.16389847868545,129.15980699132612,"금융,보험>금융서비스>은행>KB국민은행"
