주소,지점명,전화번호,위도,경도,카테고리
부산강서구대저로282,NH농협은행부산강서지점,051-973-0090,35.212194145907056,128.9826743345946,"금융,보험>금융서비스>은행>NH농협은행"
부산금정구부산대학로63번길2,NH농협은행부산대학교지점,051-512-0715,35.23292163612829,129.08032085927118,"금융,보험>금융서비스>은행>NH농협은행"
부산금정구서동로149,NH농협은행서동지점,051-528-5701,35.21501785449981,129.10293415334075,"금융,보험>금융서비스>은행>NH농협은행"
부산금정구중앙대로1935,NH농협은행구서동지점,051-514-2540,35.25718351122184,129.09106922436428,"금융,보험>금융서비스>은행>NH농협은행"
부산기장군기장읍차성남로52,NH농협은행기장군지부,051-721-0390,35.24103753320463,129.2136997575534,"금융,보험>금융서비스>은행>NH농협은행"
부산남구수영로306,NH농협은행대연동지점,051-626-1145,35.13689768083404,129.0998320090411,"금융,보험>금융서비스>은행>NH농협은행"
부산동구고관로104,NH농협은행수정동지점,051-468-2616,35.12808225349023,129.04613063135008,"금융,보험>금융서비스>은행>NH농협은행"
부산동구부산진성공원로4,NH농협은행부산진지점,051-646-0161,35.136888302532405,129.05996508566977,"금융,보험>금융서비스>은행>NH농협은행"
부산동래구명륜로112번길64,NH농협은행동래지점,051-552-2711,35.202856054119685,129.08626612158355,"금융,보험>금융서비스>은행>NH농협은행"
부산동래구명장로20번길90,NH농협은행명장동지점,051-525-1101,35.202259097304534,129.1004092817849,"금융,보험>금융서비스>은행>NH농협은행"
부산동래구사직로70번길50,NH농협은행사직동지점,051-502-9901,35.1974756296488,129.05776484387485,"금융,보험>금융서비스>은행>NH농협은행"
부산동래구안락로132,NH농협은행충렬지점,051-524-2700,35.19881221688984,129.11123417123622,"금융,보험>금융서비스>은행>NH농협은행"
부산동래구충렬대로107번길65,NH농협은행온천동지점,051-553-5363,35.20964306953455,129.07291907190427,"금융,보험>금융서비스>은행>NH농협은행"
부산부산진구가야대로597,NH농협은행가야동지점,051-891-3951,35.15513559884603,129.03739893599413,"금융,보험>금융서비스>은행>NH농협은행"
부산부산진구서면로68번길3,NH농협은행서면중앙금융센터,051-806-8041,35.156831588261404,129.05818445127778,"금융,보험>금융서비스>은행>NH농협은행"
부산부산진구서전로41,NH농협은행전포동지점,051-805-5004,35.15797424443396,129.0643800953771,"금융,보험>금융서비스>은행>NH농협은행"
부산부산진구중앙대로783번길14,NH농협은행부산영업부,051-802-5206,35.16254096762255,129.0622327610456,"금융,보험>금융서비스>은행>NH농협은행"
부산부산진구중앙번영로14,NH농협은행범일동지점,051-632-9821,35.144743664118685,129.06065898319207,"금융,보험>금융서비스>은행>NH농협은행"
부산부산진구진연로15,NH농협은행부산시청지점,051-868-8710,35.17876210912482,129.0735612975119,"금융,보험>금융서비스>은행>NH농협은행"
부산북구만덕대로33,NH농협은행구포지점,051-332-1527,35.21118325215646,129.0085666988315,"금융,보험>금융서비스>은행>NH농협은행"
부산사상구가야대로272-1,NH농협은행주례동지점,051-317-6400,35.15009633697974,129.00243361607917,"금융,보험>금융서비스>은행>NH농협은행"
부산사상구농산물시장로9,NH농협은행엄궁시장지점,051-312-9690,35.12802321964961,128.96398997134173,"금융,보험>금융서비스>은행>NH농협은행"
부산사상구백양대로913,NH농협은행모라동지점,051-327-7571,35.187757666602955,128.99060196965647,"금융,보험>금융서비스>은행>NH농협은행"
부산사상구사상로250번길3,NH농협은행사상지점,051-327-1491,35.16716314379074,128.98258337347426,"금융,보험>금융서비스>은행>NH농협은행"
부산사상구새벽로147,NH농협은행사상중앙금융센터,051-324-6008,35.154460105527704,128.98253179995245,"금융,보험>금융서비스>은행>NH농협은행"
부산사하구낙동남로1417,NH농협은행하단동지점,051-204-2420,35.10656645603321,128.96662883470282,"금융,보험>금융서비스>은행>NH농협은행"
부산사하구다대로556,NH농협은행다대포지점,051-263-9377,35.0567945208069,128.97052284318224,"금융,보험>금융서비스>은행>NH농협은행"
부산사하구신산로177,NH농협은행신평동금융센터,051-206-3556,35.090236700995334,128.97495747209626,"금융,보험>금융서비스>은행>NH농협은행"
부산서구구덕로345,NH농협은행대신동지점,051-255-9111,35.11451153545265,129.01521111049232,"금융,보험>금융서비스>은행>NH농협은행"
부산수영구광남로195,NH농협은행광안동지점,051-753-7476,35.158286090919866,129.1202910947389,"금융,보험>금융서비스>은행>NH농협은행"
부산수영구광남로35,NH농협은행부산남천동지점,051-626-4011,35.14612470322265,129.11102507870172,"금융,보험>금융서비스>은행>NH농협은행"
부산연제구반송로58,NH농협은행연산동지점,051-853-0021,35.189016113541015,129.08611193164822,"금융,보험>금융서비스>은행>NH농협은행"
부산연제구중앙대로1090,NH농협은행연산중앙금융센터,051-865-8081,35.18479820961399,129.08106242400527,"금융,보험>금융서비스>은행>NH농협은행"
부산연제구토현로6,NH농협은행토곡지점,051-751-0836,35.18006108155999,129.10797865542304,"금융,보험>금융서비스>은행>NH농협은행"
부산영도구남항로49,NH농협은행영도지점,051-415-0911,35.08850884281395,129.0418719709181,"금융,보험>금융서비스>은행>NH농협은행"
부산영도구동삼로64,NH농협은행동삼동지점,051-405-7366,35.07917711420745,129.07061756384667,"금융,보험>금융서비스>은행>NH농협은행"
부산중구구덕로73,NH농협은행자갈치역지점,051-241-0131,35.097428512406324,129.0277642966459,"금융,보험>금융서비스>은행>NH농협은행"
부산중구대청로62,NH농협은행부산부평금융센터,051-245-4111,35.10276136060484,129.0267592631778,"금융,보험>금융서비스>은행>NH농협은행"
부산중구해관로65,NH농협은행부산중앙동지점,051-467-3412,35.10471697179655,129.0353052143568,"금융,보험>금융서비스>은행>NH농협은행"
부산해운대구마린시티3로1,NH농협은행마린시티금융센터,051-744-5601,35.15785985376931,129.14754867735203,"금융,보험>금융서비스>은행>NH농협은행"
부산해운대구센텀동로9,NH농협은행센텀시티지점,051-744-3761,35.170526185107605,129.13277206560366,"금융,보험>금융서비스>은행>NH농협은행"
부산해운대구좌동순환로180,NH농협은행좌동지점,051-702-2040,35.17744964800199,129.17577146911407,"금융,보험>금융서비스>은행>NH농협은행"
부산해운대구중동1로33,NH농협은행해운대지점,051-743-1671,35.16264600153434,129.16313283323296,"금융,보험>금융서비스>은행>NH농협은행"
